,geonameid,name,asciiname,alternatenames,latitude,longitude,featureclass,featurecode,countrycode,cc2,admin1code,admin2code,population,elevation,dem,timezone,modificationdate
0,2747371,'s Gravenmoer,'s Gravenmoer,'s Gravemoer,51.65594,4.94076,P,PPL,NL,,6.0,766.0,2315,,3,Europe/Amsterdam,2017-10-17
1,2747364,'s-Gravenzande,'s-Gravenzande,,52.00167,4.16528,P,PPL,NL,,11.0,1783.0,19190,,3,Europe/Amsterdam,2022-05-12
2,2747357,'s-Heerenberg,'s-Heerenberg,"'s-Heerenberg,s-Heerenberg,s-Kherenberg,с-Херенберг,’s-Heerenberg",51.8767,6.25877,P,PPL,NL,,3.0,1955.0,4720,,16,Europe/Amsterdam,2017-10-17
3,2746369,'t Heechhout,'t Heechhout,,53.16869,5.60062,P,PPL,NL,,2.0,1949.0,0,,-2,Europe/Amsterdam,2019-01-20
4,6544858,'t Herselt,'t Herselt,,51.60917,5.98889,P,PPL,NL,,6.0,1982.0,0,,14,Europe/Amsterdam,2022-09-30
5,2746140,'t Schoor,'t Schoor,"'t Schoor,Het Schoor,It Skoar,Schoor",53.39385,5.98257,P,PPL,NL,,2.0,1970.0,0,,-1,Europe/Amsterdam,2019-01-20
6,2746087,'t Vlut,'t Vlut,,51.30476,5.78542,P,PPL,NL,,5.0,946.0,0,,32,Europe/Amsterdam,2009-01-12
7,2746031,'t Zand,'t Zand,Zand,52.83667,4.75556,P,PPL,NL,,7.0,441.0,2485,,2,Europe/Amsterdam,2017-10-17
8,2760151,Aadorp,Aadorp,,52.37667,6.62917,P,PPL,NL,,15.0,141.0,0,,10,Europe/Amsterdam,2017-10-17
9,2760149,Aagtdorp,Aagtdorp,Aagtdorn,52.69,4.70417,P,PPL,NL,,7.0,373.0,570,,2,Europe/Amsterdam,2017-03-24
10,2760147,Aagtekerke,Aagtekerke,,51.54667,3.50972,P,PPL,NL,,10.0,717.0,1245,,2,Europe/Amsterdam,2017-10-17
11,2760145,Aalbeek,Aalbeek,,50.9,5.85139,P,PPL,NL,,5.0,1954.0,275,,125,Europe/Amsterdam,2019-01-20
12,2760144,Aalburg,Aalburg,"Aalburg,Albjurg,Alburx,Wijk en Aalburg,albrg,albwrkh,Албюрг,Ալբուրխ,آلبرگ,آلبورخ",51.75482,5.13156,P,PPL,NL,,6.0,1959.0,6588,,3,Europe/Amsterdam,2023-03-07
13,2760142,Aalden,Aalden,,52.79,6.71806,P,PPL,NL,,1.0,109.0,1625,,18,Europe/Amsterdam,2017-10-17
14,2760139,Aaldonk,Aaldonk,,51.7125,5.99444,P,PPL,NL,,5.0,907.0,0,,13,Europe/Amsterdam,2007-06-03
15,2760134,Aalsmeer,Aalsmeer,"Aalsmeer,Alsmer,QFA,a er si mei er,Алсмер,阿尔斯梅尔",52.25917,4.75972,P,PPL,NL,,7.0,358.0,22991,,-4,Europe/Amsterdam,2017-10-17
16,2760132,Aalsmeerderbrug,Aalsmeerderbrug,,52.27417,4.75,P,PPL,NL,,7.0,394.0,505,,-2,Europe/Amsterdam,2017-10-17
17,2760131,Aalst,Aalst,,51.7825,5.12778,P,PPL,NL,,3.0,297.0,1580,,3,Europe/Amsterdam,2017-10-17
18,2760130,Aalst,Aalst,,51.935,5.54028,P,PPL,NL,,3.0,214.0,0,,7,Europe/Amsterdam,2007-06-03
19,2760124,Aalsum,Aalsum,"Aalsum,Ealsum",53.3075,6.36944,P,PPL,NL,,4.0,1969.0,0,,0,Europe/Amsterdam,2019-01-20
20,2760123,Aalten,Aalten,Aalten,51.925,6.58056,P,PPL,NL,,3.0,197.0,19141,,27,Europe/Amsterdam,2017-10-17
21,2760121,Aalzum,Aalzum,"Aalsum,Aalzum,Ealsum",53.33923,6.00334,P,PPL,NL,,2.0,1970.0,0,,0,Europe/Amsterdam,2019-01-20
22,2760119,Aam,Aam,,51.915,5.86667,P,PPL,NL,,3.0,1734.0,0,,8,Europe/Amsterdam,2007-06-03
23,2760107,Aan Reijans,Aan Reijans,,51.04917,5.92917,P,PPL,NL,,5.0,1711.0,0,,60,Europe/Amsterdam,2007-06-03
24,2760114,Aan de Bergen,Aan de Bergen,,51.26583,5.87778,P,PPL,NL,,5.0,1640.0,0,,29,Europe/Amsterdam,2007-06-03
25,2760112,Aan de Popelaar,Aan de Popelaar,"Aan de Popelaar,Aandepoppelaar",51.05499,5.94148,P,PPL,NL,,5.0,1711.0,0,,58,Europe/Amsterdam,2012-01-17
26,2760111,Aan de School,Aan de School,,51.06223,5.96718,P,PPL,NL,,5.0,1711.0,0,,58,Europe/Amsterdam,2011-06-04
27,2760110,Aan de Zuwe,Aan de Zuwe,,52.1725,4.90139,P,PPL,NL,,9.0,736.0,0,,-2,Europe/Amsterdam,2007-06-03
28,2760108,Aan het Broek,Aan het Broek,,51.13333,6.08333,P,PPL,NL,,5.0,1669.0,0,,28,Europe/Amsterdam,2011-06-04
29,2760101,Aardam,Aardam,Aardam,52.16667,4.76667,P,PPL,NL,,11.0,569.0,0,,-7,Europe/Amsterdam,2012-05-05
30,2760096,Aardenburg,Aardenburg,"Aarntenmpournk,Erreburg,ardnbrg,Άαρντενμπουργκ,آردنبرگ,آرڈنبرگ",51.27333,3.44722,P,PPL,NL,,10.0,1714.0,2005,,4,Europe/Amsterdam,2017-10-17
31,2760092,Aarlanderveen,Aarlanderveen,,52.14083,4.72778,P,PPL,NL,,11.0,484.0,0,,-2,Europe/Amsterdam,2017-10-17
32,2760090,Aarle,Aarle,,51.5125,5.3625,P,PPL,NL,,6.0,753.0,0,,16,Europe/Amsterdam,2007-06-03
33,2760089,Aarle,Aarle,,51.5096,5.63221,P,PPL,NL,,6.0,1659.0,0,,18,Europe/Amsterdam,2009-01-02
34,6698718,Aarle-Rixtel,Aarle-Rixtel,"arl-rykstl,آرل-ریکستل,آرلے ریکسٹل",51.50976,5.63839,P,PPL,NL,,6.0,1659.0,5125,,19,Europe/Amsterdam,2017-10-17
35,2760085,Aartswoud,Aartswoud,"Aardswoud,Aartwoud",52.74333,4.94861,P,PPL,NL,,7.0,432.0,490,,-1,Europe/Amsterdam,2017-10-17
36,2760083,Aasterberg,Aasterberg,,51.10167,5.84167,P,PPL,NL,,5.0,1711.0,35,,27,Europe/Amsterdam,2017-03-24
37,2760080,Abbega,Abbega,,53.01829,5.57024,P,PPL,NL,,2.0,1900.0,110,,0,Europe/Amsterdam,2017-10-17
38,2760079,Abbegaasterketting,Abbegaasterketting,Abbegaasterketting,53.0241,5.56299,P,PPL,NL,,2.0,1900.0,0,,0,Europe/Amsterdam,2018-07-04
39,2760078,Abbekerk,Abbekerk,,52.73167,5.01806,P,PPL,NL,,7.0,420.0,2110,,1,Europe/Amsterdam,2017-10-17
40,2760076,Abbekinderen,Abbekinderen,,51.48167,3.91944,P,PPL,NL,,10.0,678.0,0,,-1,Europe/Amsterdam,2007-06-03
41,2760075,Abbenbroek,Abbenbroek,,51.84833,4.24306,P,PPL,NL,,11.0,1930.0,0,,-1,Europe/Amsterdam,2017-10-17
42,2760073,Abbenes,Abbenes,,52.235,4.59167,P,PPL,NL,,7.0,394.0,855,,-3,Europe/Amsterdam,2017-10-17
43,2760072,Abbenwier,Abbenwier,"Abbengawier,Abbenwier,Abbeweer,Abbingawier",53.0636,5.79031,P,PPL,NL,,2.0,80.0,0,,-1,Europe/Amsterdam,2015-06-14
44,2760071,Abbestede,Abbestede,,52.85083,4.71667,P,PPL,NL,,7.0,441.0,0,,1,Europe/Amsterdam,2013-06-09
45,2760069,Abbewier,Abbewier,"Abbewier,Jewier",53.38333,6.15,P,PPL,NL,,2.0,1970.0,0,,-1,Europe/Amsterdam,2019-01-20
46,2760067,Abcoude,Abcoude,"Abcoude,Abkoude,a bu kao de,abkad,abkawdh,أبكاوده,ابکاد,阿布考德",52.2725,4.96944,P,PPL,NL,,9.0,736.0,6920,,1,Europe/Amsterdam,2017-10-17
47,2760064,Abcoven,Abcoven,,51.5275,5.08333,P,PPL,NL,,6.0,785.0,1325,,12,Europe/Amsterdam,2017-03-24
48,2760060,Absdale,Absdale,Abtsdale,51.2675,4.00417,P,PPL,NL,,10.0,677.0,145,,4,Europe/Amsterdam,2017-03-24
49,2760058,Abshoven,Abshoven,,50.96917,5.85139,P,PPL,NL,,5.0,1883.0,0,,56,Europe/Amsterdam,2007-06-03
50,2760055,Abtswoude,Abtswoude,Abswoude,51.97917,4.35556,P,PPL,NL,,11.0,503.0,25,,-1,Europe/Amsterdam,2017-03-24
51,2760053,Achlum,Achlum,Achlum,53.14925,5.48346,P,PPL,NL,,2.0,1949.0,525,,1,Europe/Amsterdam,2019-01-20
52,2760050,Acht,Acht,,51.48,5.42917,P,PPL,NL,,6.0,772.0,0,,20,Europe/Amsterdam,2007-06-03
53,2760041,Achter de Vree,Achter de Vree,,52.43333,5.95,P,PPL,NL,,3.0,269.0,0,,14,Europe/Amsterdam,2011-06-04
54,2760028,Achter het Klooster,Achter het Klooster,,51.2575,5.87917,P,PPL,NL,,5.0,1640.0,0,,29,Europe/Amsterdam,2007-06-03
55,2760019,Achter-Lindt,Achter-Lindt,,51.81917,4.58194,P,PPL,NL,,11.0,642.0,0,,-1,Europe/Amsterdam,2007-06-03
56,2759998,Achter-Thesinge,Achter-Thesinge,,53.28167,6.65694,P,PPL,NL,,4.0,14.0,0,,-2,Europe/Amsterdam,2019-01-20
57,2760049,Achterberg,Achterberg,,51.9725,5.5875,P,PPL,NL,,9.0,340.0,750,,11,Europe/Amsterdam,2017-03-24
58,2760047,Achterbos,Achterbos,Achterbosch,52.225,4.92639,P,PPL,NL,,9.0,736.0,0,,-2,Europe/Amsterdam,2007-06-03
59,2760046,Achterbosch,Achterbosch,,51.40917,5.77778,P,PPL,NL,,6.0,743.0,0,,25,Europe/Amsterdam,2007-06-03
60,2760045,Achterbosch,Achterbosch,,51.51083,5.57222,P,PPL,NL,,6.0,1659.0,0,,16,Europe/Amsterdam,2007-06-03
61,2760044,Achterbroek,Achterbroek,,51.42917,5.68611,P,PPL,NL,,6.0,847.0,0,,24,Europe/Amsterdam,2007-06-03
62,2760043,Achterbroek,Achterbroek,Terbroek,51.9675,4.69861,P,PPL,NL,,11.0,1931.0,280,,-1,Europe/Amsterdam,2021-09-09
63,2760038,Achterdijk,Achterdijk,,51.65667,4.61944,P,PPL,NL,,6.0,1709.0,0,,1,Europe/Amsterdam,2007-06-03
64,2760037,Achterdijk,Achterdijk,,51.89167,5.03889,P,PPL,NL,,9.0,1961.0,200,,-1,Europe/Amsterdam,2019-01-20
65,2760035,Achterdrempt,Achterdrempt,,52.02333,6.18333,P,PPL,NL,,3.0,1876.0,325,,11,Europe/Amsterdam,2017-03-24
66,2760033,Achtereind,Achtereind,,51.3825,5.49028,P,PPL,NL,,6.0,866.0,0,,20,Europe/Amsterdam,2007-06-03
67,2760025,Achterhoek,Achterhoek,,52.21917,5.40833,P,PPL,NL,,3.0,267.0,0,,-1,Europe/Amsterdam,2007-06-03
68,2760024,Achterhoek,Achterhoek,,52.24833,6.48611,P,PPL,NL,,15.0,1735.0,0,,17,Europe/Amsterdam,2007-06-03
69,2760014,Achtersloot,Achtersloot,,52.03523,5.02277,P,PPL,NL,,9.0,353.0,0,,1,Europe/Amsterdam,2009-10-09
70,2760013,Achterste Brug,Achterste Brug,,51.28,5.42917,P,PPL,NL,,6.0,858.0,0,,33,Europe/Amsterdam,2007-06-03
71,2760011,Achterste Diesdonk,Achterste Diesdonk,,51.42917,5.7125,P,PPL,NL,,6.0,743.0,0,,23,Europe/Amsterdam,2007-06-03
72,2760010,Achterste Erm,Achterste Erm,,52.74333,6.825,P,PPL,NL,,1.0,109.0,70,,18,Europe/Amsterdam,2017-03-24
73,2760009,Achterste Heide,Achterste Heide,,51.75917,5.57917,P,PPL,NL,,6.0,828.0,0,,11,Europe/Amsterdam,2007-06-03
74,2760008,Achterste Heikant,Achterste Heikant,,51.34833,5.14028,P,PPL,NL,,6.0,1667.0,0,,31,Europe/Amsterdam,2007-06-03
75,2760007,Achterste Hermalen,Achterste Hermalen,,51.60417,5.40417,P,PPL,NL,,6.0,1948.0,0,,8,Europe/Amsterdam,2017-08-16
76,2760002,Achterste Rith,Achterste Rith,,51.555,4.71389,P,PPL,NL,,6.0,758.0,0,,5,Europe/Amsterdam,2007-06-03
77,2760006,Achterstehoek,Achterstehoek,,51.95,6.01667,P,PPL,NL,,3.0,226.0,0,,10,Europe/Amsterdam,2009-01-13
78,2759995,Achterveld,Achterveld,,52.13583,5.49722,P,PPL,NL,,9.0,327.0,0,,7,Europe/Amsterdam,2017-10-17
79,2759992,Achterwetering,Achterwetering,,52.15167,5.15278,P,PPL,NL,,9.0,310.0,70,,2,Europe/Amsterdam,2017-03-24
80,2759987,Achthoven,Achthoven,,51.96833,4.99306,P,PPL,NL,,9.0,1961.0,220,,0,Europe/Amsterdam,2019-01-20
81,2759986,Achthoven,Achthoven,,52.05667,4.99028,P,PPL,NL,,9.0,335.0,0,,1,Europe/Amsterdam,2007-06-03
82,2759985,Achthoven,Achthoven,,52.13582,4.55696,P,PPL,NL,,11.0,547.0,0,,0,Europe/Amsterdam,2011-04-19
83,2759983,Achthuizen,Achthuizen,,51.68833,4.27917,P,PPL,NL,,11.0,1924.0,0,,0,Europe/Amsterdam,2017-10-17
84,2759981,Achtmaal,Achtmaal,,51.45417,4.58472,P,PPL,NL,,6.0,879.0,635,,13,Europe/Amsterdam,2017-10-17
85,2759980,Achtsehoek,Achtsehoek,,51.46667,5.4,P,PPL,NL,,6.0,772.0,0,,21,Europe/Amsterdam,2011-06-04
86,2759977,Achttienhoven,Achttienhoven,Maarssen,52.14833,5.13889,P,PPL,NL,,9.0,310.0,0,,0,Europe/Amsterdam,2007-06-03
87,2759978,Achttienhoven,Achttienhoven,,52.14667,4.85694,P,PPL,NL,,11.0,569.0,130,,-1,Europe/Amsterdam,2017-03-24
88,2759975,Acquoy,Acquoy,"Ackooi,Ackooy,Acquoij,Akkooi",51.87917,5.13611,P,PPL,NL,,3.0,1960.0,365,,3,Europe/Amsterdam,2019-01-20
89,2759967,Adorp,Adorp,,53.275,6.53333,P,PPL,NL,,4.0,1966.0,515,,2,Europe/Amsterdam,2019-01-20
90,2759961,Aduard,Aduard,"Adeward,Adewardervoorwerk,Aduard",53.25667,6.45972,P,PPL,NL,,4.0,1969.0,2030,,3,Europe/Amsterdam,2023-03-07
91,2759958,Aduardervoorwerk,Aduardervoorwerk,,53.26139,6.47461,P,PPL,NL,,4.0,1969.0,0,,-1,Europe/Amsterdam,2019-01-20
92,2759957,Aduarderzijl,Aduarderzijl,,53.31833,6.46806,P,PPL,NL,,4.0,1969.0,0,,1,Europe/Amsterdam,2021-07-06
93,2759954,Aekinga,Aekinga,"Aekinga,Aekinge",52.95195,6.32628,P,PPL,NL,,2.0,85.0,0,,10,Europe/Amsterdam,2018-12-08
94,12489843,Aengwirden,Aengwirden,,53.0,5.9167,P,PPL,NL,,2.0,74.0,0,,-2,Europe/Amsterdam,2022-06-17
95,6544770,Aerdenburg,Aerdenburg,,51.895,6.075,P,PPL,NL,,3.0,299.0,0,,12,Europe/Amsterdam,2019-01-20
96,2759951,Aerdenhout,Aerdenhout,Aardenhout,52.36167,4.59722,P,PPL,NL,,7.0,377.0,0,,9,Europe/Amsterdam,2017-10-17
97,2759950,Aerdt,Aerdt,"Aard,Aardt",51.89417,6.08472,P,PPL,NL,,3.0,299.0,540,,13,Europe/Amsterdam,2019-01-20
98,2759946,Afferden,Afferden,Afferden L,51.63417,6.01111,P,PPL,NL,,5.0,893.0,0,,15,Europe/Amsterdam,2017-10-17
99,2759945,Afferden,Afferden,,51.88,5.63472,P,PPL,NL,,3.0,225.0,1405,,7,Europe/Amsterdam,2017-10-17
100,2759941,Afhang,Afhang,,51.45,6.05,P,PPL,NL,,5.0,1507.0,0,,26,Europe/Amsterdam,2011-06-04
101,2759940,Afsched,Afsched,,52.6,6.01667,P,PPL,NL,,15.0,1896.0,0,,-1,Europe/Amsterdam,2011-06-04
102,2759933,Agodorp,Agodorp,,52.87167,7.08333,P,PPL,NL,,4.0,1950.0,0,,11,Europe/Amsterdam,2019-01-20
103,2759932,Aijen,Aijen,"Aaien,Aaijen,Aijn,Ayen",51.58417,6.04167,P,PPL,NL,,5.0,893.0,0,,16,Europe/Amsterdam,2007-06-03
104,2759931,Akersloot,Akersloot,,52.56083,4.73333,P,PPL,NL,,7.0,383.0,0,,1,Europe/Amsterdam,2017-10-17
105,2759927,Akker,Akker,,51.50917,4.38472,P,PPL,NL,,6.0,1674.0,0,,8,Europe/Amsterdam,2007-06-03
106,2759925,Akkerput,Akkerput,,51.35,3.46528,P,PPL,NL,,10.0,1714.0,0,,0,Europe/Amsterdam,2007-06-03
107,2759924,Akkerwoude,Akkerwoude,"Akkerwoude,Ikkerwald,Ikkerwâld",53.28333,5.98333,P,PPL,NL,,2.0,1891.0,0,,-2,Europe/Amsterdam,2012-01-17
108,2759922,Akkrum,Akkrum,"Akkrum,Ankrum,akram,اکرام",53.05024,5.83087,P,PPL,NL,,2.0,74.0,3440,,0,Europe/Amsterdam,2017-10-17
109,2759921,Akmarijp,Akmarijp,"Akmarijp,Eagmaryp",53.00332,5.78894,P,PPL,NL,,2.0,1940.0,115,,-2,Europe/Amsterdam,2017-10-17
110,2759919,Albergen,Albergen,,52.37083,6.7625,P,PPL,NL,,15.0,183.0,0,,20,Europe/Amsterdam,2017-10-17
111,2759915,Alblasserdam,Alblasserdam,"Alblaserdam,Alblasserdam,a er bu la se dan,alblasrdam,Алблассердам,Ալբլասերդամ,ألبلاسردام,البلاسردام,阿尔布拉瑟丹",51.86583,4.66111,P,PPL,NL,,11.0,482.0,18348,,0,Europe/Amsterdam,2018-09-06
112,2749074,Alde Leie,Alde Leie,"Alde Leie,De Leije,Leie,Leije,Oude Leie,Oude Leije,Oude Leye",53.28882,5.72748,P,PPL,NL,,2.0,80.0,0,,0,Europe/Amsterdam,2019-01-20
113,2749669,Aldeboarn,Aldeboarn,"Aldeboarn,Oldeboorn",53.05,5.9,P,PPL,NL,,2.0,74.0,1525,,-1,Europe/Amsterdam,2017-10-17
114,2749006,Aldskou,Aldskou,"Aldskou,Oude Schouw",53.06603,5.80894,P,PPL,NL,,2.0,74.0,0,,0,Europe/Amsterdam,2015-06-14
115,2748941,Aldtsjerk,Aldtsjerk,"Aldtsjerk,Oudkerk",53.26637,5.88704,P,PPL,NL,,2.0,737.0,520,,0,Europe/Amsterdam,2017-10-17
116,2759906,Alem,Alem,,51.78667,5.34306,P,PPL,NL,,3.0,263.0,550,,6,Europe/Amsterdam,2017-10-17
117,2759902,Alinghuizen,Alinghuizen,,53.3125,6.50139,P,PPL,NL,,4.0,1966.0,0,,0,Europe/Amsterdam,2019-01-20
118,2759899,Alkmaar,Alkmaar,"Alkmaar,Alkmaer,Alkmar,Alkmaras,a er ke ma er,alkeumaleu,alkmar,arukumaru,Άλκμααρ,Алкмаар,Алкмар,Ալկմար,אלקמאר,آلکمار,ألكمار,ئەڵکمار,アルクマール,阿尔克马尔,알크마르",52.63167,4.74861,P,PPL,NL,,7.0,361.0,94853,,5,Europe/Amsterdam,2017-10-17
119,2759896,Allardsoog,Allardsoog,"Allartsoog,Allerdsoog",53.09454,6.29208,P,PPL,NL,,2.0,86.0,0,,11,Europe/Amsterdam,2008-01-14
120,2759892,Allersma,Allersma,,53.31833,6.45417,P,PPL,NL,,4.0,1969.0,0,,3,Europe/Amsterdam,2021-07-06
121,2759891,Allingawier,Allingawier,Allingaweer,53.0472,5.44484,P,PPL,NL,,2.0,1900.0,70,,2,Europe/Amsterdam,2017-10-17
122,2759887,Almelo,Almelo,"Almelo,Almeloo,QYL,Алмело",52.35667,6.6625,P,PPL,NL,,15.0,141.0,72725,,15,Europe/Amsterdam,2017-10-17
123,2759884,Almen,Almen,,52.15833,6.3,P,PPL,NL,,3.0,262.0,710,,11,Europe/Amsterdam,2017-10-17
124,2759881,Almere Buiten,Almere Buiten,,52.395,5.27639,P,PPL,NL,,16.0,34.0,0,,-2,Europe/Amsterdam,2014-02-08
125,2759880,Almere Haven,Almere Haven,,52.33576,5.21919,P,PPL,NL,,16.0,34.0,0,,-1,Europe/Amsterdam,2014-02-08
126,9072713,Almere Poort,Almere Poort,,52.34819,5.1543,P,PPL,NL,,16.0,34.0,0,,-3,Europe/Amsterdam,2014-06-04
127,2759879,Almere Stad,Almere Stad,Almere,52.37025,5.21413,P,PPL,NL,,16.0,34.0,176432,,-3,Europe/Amsterdam,2017-10-17
128,2759878,Almkerk,Almkerk,"almkrk,المکرک",51.77083,4.95972,P,PPL,NL,,6.0,1959.0,2715,,3,Europe/Amsterdam,2019-01-20
129,2759876,Alphen,Alphen,"Alfen,Alphen aan de Maas",51.8225,5.47083,P,PPL,NL,,3.0,668.0,0,,5,Europe/Amsterdam,2017-10-17
130,2759877,Alphen,Alphen,"Alfen,alfn  shmal brabant,الفن، شمال برابانت",51.48167,4.95833,P,PPL,NL,,6.0,1723.0,3160,,23,Europe/Amsterdam,2017-10-17
131,2759875,Alphen aan den Rijn,Alphen aan den Rijn,"Alfen,Alphen,Alphen a/d Rijn,Alphen aan de Rijn,Alphen aan den Rijn,Alphen aan der Rijn",52.12917,4.65546,P,PPL,NL,,11.0,484.0,70251,,1,Europe/Amsterdam,2017-10-17
132,2759871,Alphen-Oosterwijk,Alphen-Oosterwijk,,51.50083,4.975,P,PPL,NL,,6.0,1723.0,0,,20,Europe/Amsterdam,2007-06-03
133,2759865,Altena,Altena,,53.1325,6.47778,P,PPL,NL,,1.0,1699.0,305,,5,Europe/Amsterdam,2017-03-24
134,2759862,Alteveer,Alteveer,,53.05083,6.99444,P,PPL,NL,,4.0,37.0,915,,3,Europe/Amsterdam,2017-10-17
135,2759863,Alteveer,Alteveer,,52.675,6.48611,P,PPL,NL,,1.0,1690.0,565,,13,Europe/Amsterdam,2017-10-17
136,2759861,Alteveer,Alteveer,,53.11167,6.43472,P,PPL,NL,,1.0,1699.0,0,,4,Europe/Amsterdam,2017-10-17
137,2759858,Altforst,Altforst,,51.84917,5.56528,P,PPL,NL,,3.0,668.0,0,,8,Europe/Amsterdam,2017-10-17
138,2759857,Alting,Alting,,52.86583,6.53889,P,PPL,NL,,1.0,1731.0,0,,12,Europe/Amsterdam,2007-06-03
139,2759855,Altweert,Altweert,,51.24048,5.68697,P,PPL,NL,,5.0,988.0,0,,38,Europe/Amsterdam,2009-01-10
140,2759854,Altweerterheide,Altweerterheide,,51.22083,5.67917,P,PPL,NL,,5.0,988.0,595,,33,Europe/Amsterdam,2017-03-24
141,2759853,Alverna,Alverna,,51.80417,5.75972,P,PPL,NL,,3.0,296.0,1595,,10,Europe/Amsterdam,2017-03-24
142,2759852,Alvershool,Alvershool,,51.48333,5.56528,P,PPL,NL,,6.0,820.0,0,,15,Europe/Amsterdam,2007-06-03
143,11395895,Ambt Delden,Ambt Delden,,52.27015,6.63969,P,PPL,NL,,15.0,1735.0,0,,11,Europe/Amsterdam,2017-10-17
144,2759850,Amby,Amby,"Ambij,Amie,amby,امبی",50.86215,5.73226,P,PPL,NL,,5.0,935.0,6535,,53,Europe/Amsterdam,2017-10-10
145,2759849,Ameide,Ameide,,51.955,4.9625,P,PPL,NL,,9.0,1961.0,3500,,0,Europe/Amsterdam,2021-08-31
146,2759838,Amen,Amen,,52.9425,6.61111,P,PPL,NL,,1.0,1680.0,80,,14,Europe/Amsterdam,2017-10-17
147,2759831,America,America,Amerika,51.43667,5.97917,P,PPL,NL,,5.0,1507.0,1175,,31,Europe/Amsterdam,2017-10-17
148,2759830,Amerika,Amerika,,53.09167,6.37083,P,PPL,NL,,1.0,1699.0,0,,9,Europe/Amsterdam,2007-06-03
149,2759828,Amerongen,Amerongen,"Ameron'chen,amrangn,Αμερόνχεν,امرانگن",52.0025,5.45972,P,PPL,NL,,9.0,1581.0,5085,,19,Europe/Amsterdam,2017-10-17
150,2759821,Amersfoort,Amersfoort,"Amersfoort,Amersfort,Amersforto,QYM,Амерсфорт",52.155,5.3875,P,PPL,NL,,9.0,307.0,139914,,8,Europe/Amsterdam,2019-01-14
151,2759816,Ammerssluis,Ammerssluis,,51.91667,4.81667,P,PPL,NL,,11.0,1978.0,0,,-2,Europe/Amsterdam,2019-01-20
152,2759815,Ammerstol,Ammerstol,,51.9275,4.80833,P,PPL,NL,,11.0,1931.0,1580,,-1,Europe/Amsterdam,2017-10-17
153,2759813,Ammerzoden,Ammerzoden,,51.74917,5.22083,P,PPL,NL,,3.0,263.0,3040,,3,Europe/Amsterdam,2017-10-17
154,2759811,Ampsen,Ampsen,Amsen,52.17,6.42917,P,PPL,NL,,3.0,262.0,0,,13,Europe/Amsterdam,2007-06-03
155,2759805,Amsteleind,Amsteleind,,51.76667,5.5,P,PPL,NL,,6.0,828.0,780,,7,Europe/Amsterdam,2017-03-24
156,2759804,Amstelhoek,Amstelhoek,,52.23083,4.83333,P,PPL,NL,,9.0,736.0,0,,0,Europe/Amsterdam,2017-10-17
157,2759798,Amstelveen,Amstelveen,"Amstelveen,Amstelven,Amstelveyn,Amstelvin,Nieuwer Amstel,a mu si te er fen,amseutelbein,amusuterufen,Амстелвен,Амстелвин,Ամստելվեյն,אמסטלפיין,آمستل‌فین,アムステルフェーン,阿姆斯特尔芬,암스텔베인",52.30083,4.86389,P,PPL,NL,,7.0,362.0,79639,,0,Europe/Amsterdam,2017-10-17
158,2759796,Amstenrade,Amstenrade,,50.93917,5.92361,P,PPL,NL,,5.0,1954.0,1740,,88,Europe/Amsterdam,2019-01-20
159,2759787,Amsterdamscheveld,Amsterdamscheveld,"Amsterdamsche Veld I,Amsterdamseveld",52.68833,6.91528,P,PPL,NL,,1.0,114.0,190,,17,Europe/Amsterdam,2017-03-24
160,2759783,Amsweer,Amsweer,,53.30833,6.90278,P,PPL,NL,,4.0,1979.0,0,,0,Europe/Amsterdam,2021-07-05
161,2750453,Andel,Andel,Andel,51.78333,5.05833,P,PPL,NL,,6.0,1959.0,2535,,3,Europe/Amsterdam,2021-08-30
162,2759781,Andelst,Andelst,,51.90833,5.72917,P,PPL,NL,,3.0,1734.0,2990,,10,Europe/Amsterdam,2017-10-17
163,2759778,Anderen,Anderen,,53.0,6.68611,P,PPL,NL,,1.0,1680.0,245,,14,Europe/Amsterdam,2017-10-17
164,2759775,Andijk,Andijk,"Andejk,Andijk,Andijk Oost,Andijk West,Andik,Andoik,Andyk,Андейк",52.74315,5.20821,P,PPL,NL,,7.0,420.0,0,,-2,Europe/Amsterdam,2023-04-20
165,2759774,Andijk,Andijk,Andijk Oost,52.74667,5.22222,P,PPL,NL,,7.0,420.0,0,,-1,Europe/Amsterdam,2012-04-14
166,2759772,Ane,Ane,,52.61417,6.65139,P,PPL,NL,,15.0,160.0,0,,11,Europe/Amsterdam,2017-10-17
167,2759771,Anerveen,Anerveen,,52.63167,6.65694,P,PPL,NL,,15.0,160.0,0,,9,Europe/Amsterdam,2017-10-17
168,2759770,Anevelde,Anevelde,,52.5975,6.65278,P,PPL,NL,,15.0,160.0,0,,9,Europe/Amsterdam,2017-10-17
169,2759765,Angeren,Angeren,,51.91583,5.95833,P,PPL,NL,,3.0,1705.0,2275,,10,Europe/Amsterdam,2017-10-17
170,2759764,Angerlo,Angerlo,,51.99583,6.13472,P,PPL,NL,,3.0,299.0,1130,,12,Europe/Amsterdam,2017-10-17
171,2759760,Anholt,Anholt,,52.77333,6.41667,P,PPL,NL,,1.0,1690.0,0,,13,Europe/Amsterdam,2007-06-03
172,2759757,Anjum,Anjum,"Anjum,Eanjum",53.37475,6.12698,P,PPL,NL,,2.0,1970.0,880,,1,Europe/Amsterdam,2019-01-20
173,2759751,Ankeveen,Ankeveen,,52.265,5.09861,P,PPL,NL,,7.0,1696.0,255,,0,Europe/Amsterdam,2017-10-17
174,2759749,Ankeveense Rade,Ankeveense Rade,,52.25891,5.1016,P,PPL,NL,,7.0,1696.0,1110,,0,Europe/Amsterdam,2017-04-08
175,2759747,Ankum,Ankum,,52.52167,6.24167,P,PPL,NL,,15.0,148.0,0,,2,Europe/Amsterdam,2007-06-03
176,2759746,Anloo,Anloo,Anlo,53.04417,6.70139,P,PPL,NL,,1.0,1680.0,325,,16,Europe/Amsterdam,2017-10-17
177,2759740,Anna Jacobapolder,Anna Jacobapolder,Anna Jacoba,51.63917,4.12917,P,PPL,NL,,10.0,716.0,230,,0,Europe/Amsterdam,2017-03-24
178,2759737,Anna Paulowna,Anna Paulowna,"Anna Paulowna,Anna Paulowne",52.86083,4.83611,P,PPL,NL,,7.0,1911.0,0,,-3,Europe/Amsterdam,2017-10-17
179,2759730,Anneburen,Anneburen,,53.06551,5.62187,P,PPL,NL,,2.0,1900.0,0,,0,Europe/Amsterdam,2012-04-14
180,2759729,Annen,Annen,,53.0575,6.71944,P,PPL,NL,,1.0,1680.0,3405,,8,Europe/Amsterdam,2017-10-17
181,2759728,Annendaal,Annendaal,,51.10833,6.02778,P,PPL,NL,,5.0,1669.0,0,,31,Europe/Amsterdam,2007-06-03
182,2759724,Annerveenschekanaal,Annerveenschekanaal,Annerveensch Kanaal,53.0775,6.80139,P,PPL,NL,,1.0,1680.0,415,,1,Europe/Amsterdam,2017-10-17
183,2759721,Anneville,Anneville,,51.54333,4.81806,P,PPL,NL,,6.0,1723.0,0,,11,Europe/Amsterdam,2007-06-03
184,2759719,Anreep,Anreep,,52.97583,6.58333,P,PPL,NL,,1.0,106.0,0,,9,Europe/Amsterdam,2007-06-03
185,2759716,Ansen,Ansen,,52.78083,6.33611,P,PPL,NL,,1.0,1690.0,250,,7,Europe/Amsterdam,2017-10-17
186,2759706,Apeldoorn,Apeldoorn,"Apeldoarn,Apeldoorn,Apeldoorne,Apeldorn,Apeldornas,QYP,a po er duo lun,abldwrn,apeldoleun,aperudorun,apldwrn,epeladorna,xa phel dorn,Апелдорн,Ապելդորն,آبلدورن,آپلدورن,ایپلڈوم,एपेलडॉर्न,อาเพลโดร์น,აპელდორნი,アペルドールン,阿珀尔多伦,아펠도른",52.21,5.96944,P,PPL,NL,,3.0,200.0,136670,12.0,18,Europe/Amsterdam,2019-09-05
187,2759702,Apenhuizen,Apenhuizen,,52.25667,6.3,P,PPL,NL,,15.0,150.0,0,,8,Europe/Amsterdam,2007-06-03
188,2759701,Aperloo,Aperloo,,52.42583,5.86111,P,PPL,NL,,3.0,230.0,0,,2,Europe/Amsterdam,2007-06-03
189,2759700,Appel,Appel,,52.1875,5.54028,P,PPL,NL,,3.0,267.0,675,,9,Europe/Amsterdam,2017-03-24
190,2759698,Appelscha,Appelscha,"Appelscha,Appelsche,Appelsga,Appelskea,Nieuw Appelsga",52.95526,6.35053,P,PPL,NL,,2.0,85.0,4035,,9,Europe/Amsterdam,2018-12-08
191,2759693,Appeltern,Appeltern,,51.8325,5.58611,P,PPL,NL,,3.0,668.0,0,,7,Europe/Amsterdam,2017-10-17
192,2759689,Appen,Appen,,52.18167,6.12917,P,PPL,NL,,3.0,285.0,0,,7,Europe/Amsterdam,2007-06-03
193,2759687,Appingedam,Appingedam,,53.32167,6.85833,P,PPL,NL,,4.0,1979.0,12364,,2,Europe/Amsterdam,2021-07-05
194,2759684,Arcen,Arcen,"Arse,Arsen,Árse",51.47667,6.18056,P,PPL,NL,,5.0,983.0,8793,,18,Europe/Amsterdam,2017-10-17
195,2759681,Archem,Archem,,52.47583,6.44028,P,PPL,NL,,15.0,175.0,0,,10,Europe/Amsterdam,2007-06-03
196,2759677,Arendnest,Arendsnest,Arendnest,51.595,5.69583,P,PPL,NL,,6.0,755.0,0,,20,Europe/Amsterdam,2007-06-03
197,2759676,Arensgenhout,Arensgenhout,,50.88833,5.84028,P,PPL,NL,,5.0,1954.0,510,,137,Europe/Amsterdam,2019-01-20
198,2759673,Arkel,Arkel,,51.86417,4.99444,P,PPL,NL,,11.0,1978.0,2980,,1,Europe/Amsterdam,2019-01-20
199,2759668,Arkum,Arkum,,53.02973,5.49986,P,PPL,NL,,2.0,1900.0,0,,1,Europe/Amsterdam,2012-04-14
200,2759667,Armhoede,Armhoede,,52.175,6.44583,P,PPL,NL,,3.0,262.0,0,,12,Europe/Amsterdam,2007-06-03
201,2759666,Armweide,Armweide,Armwei,52.76917,6.32083,P,PPL,NL,,1.0,1690.0,0,,2,Europe/Amsterdam,2007-06-03
202,2759664,Arnemuiden,Arnemuiden,"Erremu,a ne mo yi deng,阿訥默伊登",51.50167,3.675,P,PPL,NL,,10.0,687.0,5075,,2,Europe/Amsterdam,2017-10-17
203,2759656,Arnoud,Arnoud,,52.27833,4.57083,P,PPL,NL,,11.0,534.0,0,,0,Europe/Amsterdam,2007-06-03
204,2759655,Arriën,Arrien,"Arien,Ariën",52.52583,6.44861,P,PPL,NL,,15.0,175.0,0,,7,Europe/Amsterdam,2017-10-17
205,2759653,Arriërveld,Arrierveld,,52.56417,6.43472,P,PPL,NL,,15.0,175.0,0,,8,Europe/Amsterdam,2007-06-03
206,2759652,Arum,Arum,,53.12952,5.47643,P,PPL,NL,,2.0,1900.0,895,,0,Europe/Amsterdam,2017-10-17
207,2759648,Arwerd,Arwerd,,53.3525,6.83611,P,PPL,NL,,4.0,1979.0,0,,1,Europe/Amsterdam,2021-07-05
208,2759647,Asbroek,Asbroek,,51.2825,5.90972,P,PPL,NL,,5.0,1640.0,0,,30,Europe/Amsterdam,2007-06-03
209,2759645,Asch,Asch,,51.93083,5.31111,P,PPL,NL,,3.0,214.0,300,,4,Europe/Amsterdam,2017-10-17
210,2759644,Asenray,Asenray,"Asenraij,Assenraai,Azenraai,Azenray",51.19333,6.04861,P,PPL,NL,,5.0,957.0,755,,28,Europe/Amsterdam,2017-03-24
211,2759643,Asperen,Asperen,"Asperen,ボブ・ファン・アスペレン",51.88167,5.10972,P,PPL,NL,,3.0,1960.0,0,,4,Europe/Amsterdam,2023-03-07
212,2759641,Aspert,Aspert,De Aspert,51.84417,5.63333,P,PPL,NL,,3.0,225.0,0,,5,Europe/Amsterdam,2007-06-03
213,2759640,Asschat,Asschat,"Aschat,Asschat,Asschot",52.13135,5.45169,P,PPL,NL,,9.0,327.0,0,,4,Europe/Amsterdam,2012-01-17
214,2759638,Assel,Assel,,52.2,5.83889,P,PPL,NL,,3.0,200.0,0,,52,Europe/Amsterdam,2007-06-03
215,2759635,Asselt,Asselt,,51.22583,6.0125,P,PPL,NL,,5.0,957.0,180,,21,Europe/Amsterdam,2017-03-24
216,2759631,Assendelft,Assendelft,,52.46833,4.74306,P,PPL,NL,,7.0,479.0,24230,,-1,Europe/Amsterdam,2022-08-26
217,2759630,Assendorp,Assendorp,,52.4,6.06667,P,PPL,NL,,3.0,246.0,0,,1,Europe/Amsterdam,2011-06-04
218,2759626,Assinkshoek,Assinkshoek,,52.37974,6.74665,P,PPL,NL,,15.0,183.0,0,,17,Europe/Amsterdam,2011-06-04
219,2759625,Assum,Assum,,52.51417,4.69861,P,PPL,NL,,7.0,450.0,0,,-1,Europe/Amsterdam,2007-06-03
220,2759621,Asten,Asten,"Aste,Asten",51.40417,5.74861,P,PPL,NL,,6.0,743.0,9535,,27,Europe/Amsterdam,2017-10-17
221,2759617,Attelaken,Attelaken,,51.58419,4.66447,P,PPL,NL,,6.0,777.0,335,,4,Europe/Amsterdam,2017-04-08
222,2759615,Atzeburen,Atzeburen,,53.00996,5.49762,P,PPL,NL,,2.0,1900.0,0,,0,Europe/Amsterdam,2012-04-14
223,2759614,Augsbuurt-Lutjewoude,Augsbuurt-Lutjewoude,"Augsbuur,Augsbuurt,Augsbuurt-Lutjewoude,Augstbuurt,Lutjewoude,Lytsewald,Lytsewâld",53.2665,6.16088,P,PPL,NL,,2.0,1970.0,0,,0,Europe/Amsterdam,2019-01-20
224,2759611,Augustinusga,Augustinusga,"Augustinusga,Stynsgea",53.21785,6.1617,P,PPL,NL,,2.0,59.0,1075,,2,Europe/Amsterdam,2017-10-17
225,2759610,Austerlitz,Austerlitz,,52.08,5.31528,P,PPL,NL,,9.0,355.0,1440,,15,Europe/Amsterdam,2017-10-17
226,2759601,Avenhorn,Avenhorn,,52.6175,4.95139,P,PPL,NL,,7.0,1598.0,2945,,-2,Europe/Amsterdam,2017-10-17
227,2759597,Averlo,Averlo,Averloo,52.3,6.21528,P,PPL,NL,,15.0,150.0,0,,3,Europe/Amsterdam,2007-06-03
228,2759595,Avest,Avest,,52.06167,6.59861,P,PPL,NL,,3.0,1859.0,0,,21,Europe/Amsterdam,2007-06-06
229,2759594,Axel,Axel,Aksel,51.26667,3.90833,P,PPL,NL,,10.0,715.0,8149,,5,Europe/Amsterdam,2017-10-17
230,2759592,Axelsche Sassing,Axelsche Sassing,"Axels Sassing,Sassing",51.27,3.875,P,PPL,NL,,10.0,715.0,0,,1,Europe/Amsterdam,2007-06-03
231,2759590,Axwijk,Axwijk,Akswijk,52.53116,5.01346,P,PPL,NL,,7.0,385.0,0,,1,Europe/Amsterdam,2016-07-31
232,2759586,Azelo,Azelo,"Aselo,Azeloo",52.29874,6.71389,P,PPL,NL,,15.0,1735.0,170,,14,Europe/Amsterdam,2009-03-13
233,2759585,Azewijn,Azewijn,Groot Azewijn,51.88667,6.30556,P,PPL,NL,,3.0,1955.0,490,,15,Europe/Amsterdam,2017-10-17
234,2759584,Baai,Baai,,51.5808,4.64533,P,PPL,NL,,6.0,777.0,0,,5,Europe/Amsterdam,2008-02-01
235,2759583,Baaiduinen,Baaiduinen,Baaidunen,53.3778,5.27696,P,PPL,NL,,2.0,93.0,0,,1,Europe/Amsterdam,2017-10-17
236,2759581,Baak,Baak,,52.0775,6.22778,P,PPL,NL,,3.0,1876.0,575,,11,Europe/Amsterdam,2017-10-17
237,2759580,Baakhoven,Baakhoven,,51.06833,5.82639,P,PPL,NL,,5.0,1711.0,30,,29,Europe/Amsterdam,2017-03-24
238,6544801,Baaks,Baaks,,50.83917,5.99306,P,PPL,NL,,5.0,965.0,0,,155,Europe/Amsterdam,2007-06-07
239,6544755,Baakwoning,Baakwoning,,52.005,4.18889,P,PPL,NL,,11.0,1783.0,0,,-1,Europe/Amsterdam,2007-06-07
240,2759576,Baal,Baal,,51.89833,5.91944,P,PPL,NL,,3.0,1705.0,0,,8,Europe/Amsterdam,2007-06-03
241,2759575,Baalder,Baalder,,52.58579,6.65299,P,PPL,NL,,15.0,160.0,3470,,11,Europe/Amsterdam,2017-03-24
242,2759574,Baalhoek,Baalhoek,,51.3625,4.08611,P,PPL,NL,,10.0,677.0,0,,-1,Europe/Amsterdam,2007-06-03
243,2759572,Baambrugge,Baambrugge,,52.24583,4.98889,P,PPL,NL,,9.0,736.0,1010,,-1,Europe/Amsterdam,2017-10-17
244,2759570,Baambrugse Zuwe,Baambrugse Zuwe,,52.22917,4.95139,P,PPL,NL,,9.0,736.0,460,,0,Europe/Amsterdam,2017-03-24
245,2759569,Baamsum,Baamsum,,53.28417,7.04167,P,PPL,NL,,4.0,1979.0,0,,-1,Europe/Amsterdam,2021-07-05
246,2759568,Baanhoek,Baanhoek,,51.82417,4.74306,P,PPL,NL,,11.0,610.0,0,,1,Europe/Amsterdam,2007-06-03
247,2759567,Baard,Baard,,53.14185,5.6683,P,PPL,NL,,2.0,80.0,185,,3,Europe/Amsterdam,2019-01-20
248,2759564,Baarderburen,Baarderburen,,53.12744,5.48634,P,PPL,NL,,2.0,1900.0,0,,-1,Europe/Amsterdam,2012-04-14
249,2759562,Baarland,Baarland,,51.40833,3.88472,P,PPL,NL,,10.0,654.0,0,,2,Europe/Amsterdam,2017-10-17
250,2759554,Baarle-Nassau,Baarle-Nassau,"Baarle-Nassau,バールレ・ナッサウ",51.4475,4.92917,P,PPL,NL,,6.0,744.0,6845,,28,Europe/Amsterdam,2023-09-22
251,2759552,Baarle-Nassau-grens,Baarle-Nassau-Grens,,51.40167,4.93472,P,PPL,NL,,6.0,744.0,0,,26,Europe/Amsterdam,2007-06-03
252,2759549,Baarlo,Baarlo,"Baarloo,Baolder",51.33083,6.09444,P,PPL,NL,,5.0,1894.0,5215,,24,Europe/Amsterdam,2017-10-17
253,2759548,Baarlo,Baarlo,Baarloo,52.66333,6.10694,P,PPL,NL,,15.0,1896.0,0,,2,Europe/Amsterdam,2007-06-03
254,2759547,Baarlo,Baarlo,"Baarloo,Kuinderdijk en Baarlo,Kuinderdijk en Baarloo",52.73833,5.95,P,PPL,NL,,15.0,1708.0,0,,2,Europe/Amsterdam,2017-10-17
255,2759545,Baarloseweg,Baarloseweg,,51.33333,6.01667,P,PPL,NL,,5.0,1894.0,0,,26,Europe/Amsterdam,2011-06-04
256,2759544,Baarn,Baarn,"Baan,Baarn,Barn,baleun,barn,barun,Баан,Барн,Բարն,بارن,バールン,바른",52.21167,5.2875,P,PPL,NL,,9.0,308.0,24584,,10,Europe/Amsterdam,2017-10-17
257,2759541,Baars,Baars,,52.81333,6.09167,P,PPL,NL,,15.0,1708.0,0,,12,Europe/Amsterdam,2017-10-17
258,2759540,Baarschot,Baarschot,,51.43333,5.76667,P,PPL,NL,,6.0,762.0,0,,25,Europe/Amsterdam,2007-06-06
259,2759539,Baarschot,Baarschot,,51.45833,5.18611,P,PPL,NL,,6.0,798.0,220,,19,Europe/Amsterdam,2017-03-24
260,2759538,Baarschot,Baarschot,,51.595,4.84583,P,PPL,NL,,6.0,826.0,0,,5,Europe/Amsterdam,2007-06-03
261,2759537,Baarsdorp,Baarsdorp,,51.4825,3.8375,P,PPL,NL,,10.0,654.0,0,,-2,Europe/Amsterdam,2007-06-03
262,2759536,Baarsdorpermeer,Baarsdorpermeer,,52.66917,4.99722,P,PPL,NL,,7.0,1598.0,0,,-3,Europe/Amsterdam,2007-06-03
263,2759534,Baarstraat,Baarstraat,,51.17167,5.85139,P,PPL,NL,,5.0,1641.0,0,,25,Europe/Amsterdam,2007-06-03
264,2759529,Babberich,Babberich,,51.9075,6.11111,P,PPL,NL,,3.0,299.0,1445,,13,Europe/Amsterdam,2017-10-17
265,2759527,Baburen,Baburen,,53.04462,5.49952,P,PPL,NL,,2.0,1900.0,0,,-1,Europe/Amsterdam,2012-04-14
266,2759526,Babyloniënbroek,Babylonienbroek,"Babilonienbroek,Babiloniënbroek",51.74333,5.02222,P,PPL,NL,,6.0,1959.0,422,,2,Europe/Amsterdam,2021-08-30
267,2750250,Bad Nieuweschans,Bad Nieuweschans,"Bad Nieuweschans,Langakker,Nieuweschans,Nijeskans,Nijeskâns",53.18083,7.20833,P,PPL,NL,,4.0,1895.0,0,,1,Europe/Amsterdam,2017-10-17
268,2759524,Badhoevedorp,Badhoevedorp,,52.33723,4.78523,P,PPL,NL,,7.0,394.0,0,,-1,Europe/Amsterdam,2017-10-17
269,2759522,Baexem,Baexem,Baaksem,51.22667,5.88056,P,PPL,NL,,5.0,1640.0,0,,28,Europe/Amsterdam,2017-10-17
270,2759520,Baflo,Baflo,,53.3625,6.51389,P,PPL,NL,,4.0,1966.0,1730,,5,Europe/Amsterdam,2019-01-20
271,2759515,Bagven,Bagven,"Bagben,Bagven",51.57947,4.72029,P,PPL,NL,,6.0,758.0,0,,3,Europe/Amsterdam,2012-01-17
272,2759514,Bahr,Bahr,Baar,51.98417,6.04583,P,PPL,NL,,3.0,299.0,0,,9,Europe/Amsterdam,2007-06-03
273,2759513,Baijum,Baijum,"Baaijum,Baaium,Baium,Bajum",53.16463,5.63272,P,PPL,NL,,2.0,1949.0,0,,0,Europe/Amsterdam,2019-01-20
274,2759511,Bakel,Bakel,,51.50333,5.74028,P,PPL,NL,,6.0,1652.0,4140,,23,Europe/Amsterdam,2017-10-17
275,2759507,Bakelsebrug,Bakelsebrug,,51.49333,5.71667,P,PPL,NL,,6.0,1652.0,0,,19,Europe/Amsterdam,2007-06-03
276,2759506,Baken,Baken,,51.73333,3.83333,P,PPL,NL,,10.0,1676.0,0,,0,Europe/Amsterdam,2011-06-04
277,2759504,Bakendorp,Bakendorp,,51.40833,3.90556,P,PPL,NL,,10.0,654.0,0,,1,Europe/Amsterdam,2007-06-03
278,2759502,Bakermark,Bakermark,,52.06409,6.23564,P,PPL,NL,,3.0,1876.0,0,,7,Europe/Amsterdam,2011-06-04
279,2759501,Bakertand,Bakertand,,51.53333,5.07917,P,PPL,NL,,6.0,855.0,0,,12,Europe/Amsterdam,2007-06-03
280,2759498,Bakheide,Bakheide,,51.2572,6.042,P,PPL,NL,,5.0,889.0,0,,22,Europe/Amsterdam,2011-04-19
281,2759497,Bakhuisbos,Bakhuisbos,,52.39083,6.00833,P,PPL,NL,,3.0,246.0,0,,21,Europe/Amsterdam,2007-06-03
282,2759496,Bakhuizen,Bakhuizen,,52.86975,5.45926,P,PPL,NL,,2.0,1940.0,1060,,4,Europe/Amsterdam,2017-10-17
283,2759494,Bakkerom,Bakkerom,,53.19917,6.325,P,PPL,NL,,4.0,1969.0,0,,-1,Europe/Amsterdam,2019-01-20
284,2759492,Bakkersdam,Bakkersdam,,51.30333,3.49167,P,PPL,NL,,10.0,1714.0,0,,-3,Europe/Amsterdam,2007-06-03
285,2759486,Bakkeveen,Bakkeveen,"Bakkefean,Bakkeveen",53.08072,6.25671,P,PPL,NL,,2.0,86.0,1450,,5,Europe/Amsterdam,2017-10-17
286,2759483,Bakkum,Bakkum,"Bakkum,Zuidbakkum",52.55945,4.65717,P,PPL,NL,,7.0,383.0,0,,4,Europe/Amsterdam,2010-08-09
287,2759480,Balgoy,Balgoij,"Balgoij,Balgoy",51.78,5.71389,P,PPL,NL,,3.0,296.0,0,,7,Europe/Amsterdam,2017-10-17
288,2759476,Balhofstede,Balhofstede,,51.30667,3.61667,P,PPL,NL,,10.0,1714.0,0,,-1,Europe/Amsterdam,2007-06-03
289,2759475,Balinge,Balinge,,52.81083,6.62917,P,PPL,NL,,1.0,1731.0,90,,18,Europe/Amsterdam,2017-10-17
290,2759472,Balk,Balk,,52.89756,5.57964,P,PPL,NL,,2.0,1940.0,3915,,1,Europe/Amsterdam,2017-10-17
291,2759470,Balkbrug,Balkbrug,,52.59917,6.39444,P,PPL,NL,,15.0,160.0,0,,7,Europe/Amsterdam,2017-10-17
292,2759467,Ballast,Ballast,,52.67218,6.73299,P,PPL,NL,,1.0,109.0,1710,,12,Europe/Amsterdam,2017-04-07
293,2759462,Balleman,Balleman,,51.51,4.7625,P,PPL,NL,,6.0,1723.0,0,,7,Europe/Amsterdam,2007-06-03
294,2759461,Ballingbuur,Ballingbuur,"Ballingboer,Ballingbuer,Ballingbuur",53.0,5.76667,P,PPL,NL,,2.0,1940.0,0,,-1,Europe/Amsterdam,2017-04-13
295,2759458,Balloo,Balloo,Ballo,52.99583,6.63056,P,PPL,NL,,1.0,1680.0,0,,15,Europe/Amsterdam,2017-10-17
296,2759456,Ballum,Ballum,Ballum,53.44339,5.68714,P,PPL,NL,,2.0,60.0,360,,5,Europe/Amsterdam,2017-10-17
297,2759452,Balmahuizen,Balmahuizen,,53.27167,6.36944,P,PPL,NL,,4.0,1969.0,0,,2,Europe/Amsterdam,2019-01-20
298,2759446,Baneheide,Baneheide,,50.81833,5.97639,P,PPL,NL,,5.0,965.0,135,,178,Europe/Amsterdam,2017-10-17
299,2759444,Bangert,Bangert,"Bangerd,Bangert,De Bangert",52.73582,5.1801,P,PPL,NL,,7.0,420.0,1470,,-2,Europe/Amsterdam,2017-03-24
300,2759441,Banholt,Banholt,,50.79,5.80833,P,PPL,NL,,5.0,1903.0,1005,,184,Europe/Amsterdam,2017-10-17
301,2759438,Bankert,Bankert,,51.49583,5.79444,P,PPL,NL,,6.0,1652.0,0,,26,Europe/Amsterdam,2007-06-03
302,2759434,Bant,Bant,,52.76833,5.75,P,PPL,NL,,16.0,171.0,0,,-2,Europe/Amsterdam,2017-10-17
303,2759431,Bantega,Bantega,,52.84218,5.79597,P,PPL,NL,,2.0,1940.0,635,,-1,Europe/Amsterdam,2017-10-17
304,2759429,Barchem,Barchem,,52.12417,6.44306,P,PPL,NL,,3.0,262.0,910,,19,Europe/Amsterdam,2017-10-17
305,2759426,Barendrecht,Barendrecht,"Barendrekht,Barendrext,ba lun de lei he te,baryndrykht,Барендрехт,Բարենդրեխտ,بارن‌درخت,باريندريخت,巴伦德雷赫特",51.85667,4.53472,P,PPL,NL,,11.0,489.0,38672,,1,Europe/Amsterdam,2017-10-17
306,6544910,Barendrechtse Veer,Barendrechtse Veer,,51.83583,4.52917,P,PPL,NL,,11.0,489.0,0,,0,Europe/Amsterdam,2007-06-07
307,2759424,Bareveld,Bareveld,,53.0525,6.84722,P,PPL,NL,,4.0,47.0,325,,3,Europe/Amsterdam,2017-03-24
308,2759423,Bargebek,Bargebek,,52.89083,5.6056,P,PPL,NL,,2.0,1940.0,0,,2,Europe/Amsterdam,2017-04-13
309,2759422,Bargen,Bargen,,53.08417,4.83472,P,PPL,NL,,7.0,448.0,0,,0,Europe/Amsterdam,2007-06-03
310,2759421,Barger-Compascuum,Barger-Compascuum,,52.755,7.04306,P,PPL,NL,,1.0,114.0,0,,17,Europe/Amsterdam,2017-10-17
311,2759420,Barger-Erfscheidenveen,Barger-Erfscheidenveen,,52.7275,6.86806,P,PPL,NL,,1.0,114.0,115,,13,Europe/Amsterdam,2017-03-24
312,2759417,Barger-Oosterveen,Barger-Oosterveen,,52.70168,6.97868,P,PPL,NL,,1.0,114.0,305,,20,Europe/Amsterdam,2017-04-08
313,2759415,Barger-Oosterveld,Barger-Oosterveld,,52.77,6.95833,P,PPL,NL,,1.0,114.0,3090,,24,Europe/Amsterdam,2017-03-24
314,2759413,Barlage,Barlage,,53.0125,7.05556,P,PPL,NL,,4.0,37.0,0,,3,Europe/Amsterdam,2007-06-03
315,2759411,Barlaque,Barlaque,,51.62333,4.4875,P,PPL,NL,,6.0,1709.0,0,,0,Europe/Amsterdam,2007-06-03
316,2759410,Barlo,Barlo,Barloo,51.95583,6.58889,P,PPL,NL,,3.0,197.0,0,,32,Europe/Amsterdam,2007-06-03
317,2759407,Barneveld,Barneveld,"Barneveld,Барневелд",52.14,5.58472,P,PPL,NL,,3.0,203.0,35095,,10,Europe/Amsterdam,2023-05-15
318,2759404,Barnflair,Barnflair,,52.855,7.08056,P,PPL,NL,,4.0,1950.0,230,,11,Europe/Amsterdam,2019-01-20
319,2759400,Barrier,Barrier,,50.87833,5.89861,P,PPL,NL,,5.0,986.0,0,,97,Europe/Amsterdam,2007-06-03
320,2759398,Barsbeek,Barsbeek,,52.65667,6.02222,P,PPL,NL,,15.0,1708.0,0,,2,Europe/Amsterdam,2007-06-03
321,2759397,Barsingerhorn,Barsingerhorn,,52.785,4.86389,P,PPL,NL,,7.0,1911.0,770,,1,Europe/Amsterdam,2017-10-17
322,2759392,Bartlehiem,Bartlehiem,,53.27579,5.84078,P,PPL,NL,,2.0,737.0,0,,-1,Europe/Amsterdam,2008-01-22
323,2759391,Barwoutswaarder,Barwoutswaarder,Barwoudswaarder,52.085,4.85,P,PPL,NL,,9.0,632.0,75,,1,Europe/Amsterdam,2017-03-24
324,2759388,Basse,Basse,,52.80417,6.03194,P,PPL,NL,,15.0,1708.0,95,,7,Europe/Amsterdam,2017-10-17
325,2759387,Basserveld,Basserveld,,52.81417,6.04167,P,PPL,NL,,15.0,1708.0,0,,8,Europe/Amsterdam,2007-06-03
326,2759385,Batenburg,Batenburg,,51.82417,5.62917,P,PPL,NL,,3.0,296.0,520,,9,Europe/Amsterdam,2017-10-17
327,2759383,Bath,Bath,Bat,51.40167,4.20972,P,PPL,NL,,10.0,703.0,0,,2,Europe/Amsterdam,2007-06-03
328,2759381,Bathmen,Bathmen,Batmen,52.25,6.2875,P,PPL,NL,,15.0,150.0,0,,10,Europe/Amsterdam,2017-10-17
329,2759378,Bato’s Erf,Bato's Erf,,52.22154,5.65293,P,PPL,NL,,3.0,273.0,0,,29,Europe/Amsterdam,2011-06-04
330,2759377,Battenoord,Battenoord,,51.7075,4.12917,P,PPL,NL,,11.0,1924.0,0,,-1,Europe/Amsterdam,2013-06-09
331,2759371,Bavinkel,Bavinkel,,52.34,6.69306,P,PPL,NL,,15.0,141.0,0,,12,Europe/Amsterdam,2007-06-03
332,2759368,Bazuin,Bazuin,,52.65417,6.41389,P,PPL,NL,,1.0,1690.0,0,,10,Europe/Amsterdam,2007-06-03
333,2759363,Beckum,Beckum,Bekkum,52.21083,6.74167,P,PPL,NL,,15.0,164.0,0,,22,Europe/Amsterdam,2007-06-03
334,2759362,Bedaf,Bedaf,,51.66083,5.575,P,PPL,NL,,6.0,1991.0,0,,11,Europe/Amsterdam,2022-09-30
335,2759356,Bedum,Bedum,Bedum,53.30083,6.60278,P,PPL,NL,,4.0,1966.0,7765,,1,Europe/Amsterdam,2019-01-20
336,2759353,Beegden,Beegden,,51.18917,5.91944,P,PPL,NL,,5.0,1641.0,1765,,32,Europe/Amsterdam,2017-10-17
337,2759345,Beek,Beek,,51.82917,5.92778,P,PPL,NL,,3.0,1945.0,0,,13,Europe/Amsterdam,2017-10-17
338,2759348,Beek,Beek,,51.53667,5.94306,P,PPL,NL,,5.0,984.0,0,,23,Europe/Amsterdam,2007-06-03
339,2759346,Beek,Beek,,51.61389,5.38695,P,PPL,NL,,6.0,845.0,0,,8,Europe/Amsterdam,2011-06-04
340,2759350,Beek,Beek,"Baek,Beek",50.94083,5.79722,P,PPL,NL,,5.0,888.0,8415,,79,Europe/Amsterdam,2017-10-17
341,2759349,Beek,Beek,,51.5289,5.63382,P,PPL,NL,,6.0,1659.0,5185,,16,Europe/Amsterdam,2017-03-24
342,8436503,Beek en Donk,Beek en Donk,,51.54158,5.62603,P,PPL,NL,,6.0,1659.0,0,,13,Europe/Amsterdam,2017-10-17
343,2759344,Beek gem Montferland,Beek gem Montferland,"Beek,Beek (Montferland)",51.90667,6.1875,P,PPL,NL,,3.0,1955.0,1315,,18,Europe/Amsterdam,2021-12-06
344,2759342,Beekbergen,Beekbergen,,52.16,5.96389,P,PPL,NL,,3.0,200.0,2545,,28,Europe/Amsterdam,2017-10-17
345,2759340,Beekdorp,Beekdorp,,52.355,6.83194,P,PPL,NL,,15.0,1774.0,0,,14,Europe/Amsterdam,2007-06-03
346,6544787,Beekheuvel,Beekheuvel,,51.63833,6.09444,P,PPL,NL,"NL,DE",5.0,893.0,0,,15,Europe/Amsterdam,2007-06-07
347,2759333,Beekkant,Beekkant,,51.64488,5.36164,P,PPL,NL,,6.0,845.0,0,,6,Europe/Amsterdam,2011-04-19
348,2759329,Beekveld,Beekveld,,51.66667,5.38333,P,PPL,NL,,6.0,845.0,0,,5,Europe/Amsterdam,2009-10-09
349,2759323,Beemd,Beemd,,51.73333,5.55,P,PPL,NL,,6.0,1721.0,0,,18,Europe/Amsterdam,2011-06-04
350,2759321,Beemdkant,Beemdkant,,51.52583,5.6,P,PPL,NL,,6.0,1659.0,0,,15,Europe/Amsterdam,2007-06-03
351,2759317,Beemte,Beemte,,52.255,5.98889,P,PPL,NL,,3.0,200.0,130,,6,Europe/Amsterdam,2017-03-24
352,8593867,Beemte-Broekland,Beemte-Broekland,,52.256,5.98974,P,PPL,NL,,3.0,200.0,1000,7.0,7,Europe/Amsterdam,2017-10-17
353,2759315,Beerenplaat,Beerenplaat,,51.8325,4.39583,P,PPL,NL,,11.0,1930.0,0,,4,Europe/Amsterdam,2015-05-25
354,2759309,Beers,Beers,"Beers,Beers NB,Bèèrs",51.72583,5.82778,P,PPL,NL,,6.0,1982.0,1275,,13,Europe/Amsterdam,2022-09-30
355,2759308,Beers,Beers,Bears,53.15573,5.73433,P,PPL,NL,,2.0,80.0,0,,2,Europe/Amsterdam,2019-01-20
356,2759303,Beerschoten,Beerschoten,,52.0625,5.25417,P,PPL,NL,,9.0,1581.0,0,,5,Europe/Amsterdam,2007-06-03
357,2759301,Beersdonk,Beersdonk,,51.44141,5.72505,P,PPL,NL,,6.0,762.0,0,,24,Europe/Amsterdam,2011-04-19
358,2759299,Beersterhoogen,Beersterhoogen,"Beersterhogen,Beersterhoogen",53.18333,7.13333,P,PPL,NL,,4.0,1895.0,0,,0,Europe/Amsterdam,2010-09-17
359,2759298,Beerta,Beerta,,53.175,7.09167,P,PPL,NL,,4.0,1895.0,0,,-1,Europe/Amsterdam,2017-10-17
360,2759296,Beerten,Beerten,,51.48569,5.14791,P,PPL,NL,,6.0,798.0,0,,16,Europe/Amsterdam,2009-01-14
361,2759295,Beertsenhoven,Beertsenhoven,,50.82667,5.88611,P,PPL,NL,,5.0,1729.0,0,,106,Europe/Amsterdam,2007-06-03
362,2759294,Beerze,Beerze,Beerse,52.51333,6.52917,P,PPL,NL,,15.0,175.0,0,,8,Europe/Amsterdam,2017-10-17
363,2759292,Beerzerhaar,Beerzerhaar,,52.49308,6.55472,P,PPL,NL,,15.0,175.0,0,,6,Europe/Amsterdam,2011-06-04
364,2759291,Beerzerveld,Beerzerveld,Beerserveen,52.49333,6.57361,P,PPL,NL,,15.0,175.0,0,,8,Europe/Amsterdam,2017-10-17
365,2759288,Beesd,Beesd,Beest,51.8875,5.19167,P,PPL,NL,,3.0,1960.0,2980,,3,Europe/Amsterdam,2019-01-20
366,2759286,Beesel,Beesel,Besel,51.26833,6.03889,P,PPL,NL,,5.0,889.0,2090,,21,Europe/Amsterdam,2017-10-17
367,2759280,Beets,Beets,,52.58833,4.97778,P,PPL,NL,,7.0,385.0,525,,0,Europe/Amsterdam,2017-10-17
368,2759275,Beetsterzwaag,Beetsterzwaag,"Beetstersweach,Beetsterzwaag",53.05914,6.07711,P,PPL,NL,,2.0,86.0,3485,,5,Europe/Amsterdam,2017-10-17
369,2759274,Behelp,Behelp,,51.37417,5.75833,P,PPL,NL,,6.0,743.0,0,,27,Europe/Amsterdam,2007-06-03
370,2759271,Beilen,Beilen,,52.86333,6.51389,P,PPL,NL,,1.0,1731.0,9495,,16,Europe/Amsterdam,2017-10-17
371,2759267,Beilervaart,Beilervaart,,52.86667,6.45278,P,PPL,NL,,1.0,1731.0,0,,11,Europe/Amsterdam,2007-06-03
372,2759264,Beitel,Beitel,,50.84578,6.00454,P,PPL,NL,,5.0,917.0,70,,178,Europe/Amsterdam,2017-03-24
373,2759263,Bekelaar,Bekelaar,,51.44583,5.63611,P,PPL,NL,,6.0,1771.0,0,,21,Europe/Amsterdam,2007-06-03
374,2759261,Bekenes,Bekenes,,52.0775,4.83472,P,PPL,NL,,9.0,632.0,0,,-1,Europe/Amsterdam,2007-06-03
375,2759260,Bekveld,Bekveld,,52.0475,6.29861,P,PPL,NL,,3.0,1876.0,0,,12,Europe/Amsterdam,2007-06-03
376,2759258,Beldert,Beldert,,51.68083,3.98611,P,PPL,NL,,10.0,1676.0,0,,0,Europe/Amsterdam,2007-06-03
377,2759256,Belfeld,Belfeld,Belvend,51.3125,6.11528,P,PPL,NL,,5.0,983.0,0,,28,Europe/Amsterdam,2017-10-17
378,2759253,Belgenhoek,Belgenhoek,,51.36917,5.91111,P,PPL,NL,,5.0,1894.0,0,,36,Europe/Amsterdam,2010-09-17
379,2759252,Belgeren,Belgeren,,51.44,5.74583,P,PPL,NL,,6.0,762.0,0,,23,Europe/Amsterdam,2007-06-03
380,2759250,Bellingeweer,Bellingeweer,Bellingeweer,53.32715,6.51618,P,PPL,NL,,4.0,1966.0,0,,2,Europe/Amsterdam,2019-01-20
381,2759247,Bellingwolde,Bellingwolde,,53.11583,7.16528,P,PPL,NL,,4.0,1950.0,2290,,1,Europe/Amsterdam,2019-01-20
382,2759243,Belt,Belt,,52.905,4.95139,P,PPL,NL,,7.0,1911.0,0,,3,Europe/Amsterdam,2012-11-25
383,2759239,Belt-Schutsloot,Belt-Schutsloot,,52.67167,6.06389,P,PPL,NL,,15.0,1708.0,560,,1,Europe/Amsterdam,2017-10-17
384,2759240,Beltrum,Beltrum,,52.06667,6.56389,P,PPL,NL,,3.0,1859.0,1285,,19,Europe/Amsterdam,2017-10-17
385,2759235,Belvert,Belvert,,51.6,5.24722,P,PPL,NL,,6.0,824.0,0,,7,Europe/Amsterdam,2021-07-06
386,2759234,Bemelen,Bemelen,,50.84667,5.7625,P,PPL,NL,,5.0,1903.0,355,,82,Europe/Amsterdam,2017-10-17
387,2759231,Bemmel,Bemmel,"Bemel,Бемел",51.89167,5.89861,P,PPL,NL,,3.0,1705.0,12020,,13,Europe/Amsterdam,2017-10-17
388,2759227,Bemmer,Bemmer,,51.55,5.62361,P,PPL,NL,,6.0,1659.0,0,,13,Europe/Amsterdam,2007-06-03
389,2759226,Benderse,Bendersche,Benderse,52.77917,6.36806,P,PPL,NL,,1.0,1690.0,0,,9,Europe/Amsterdam,2007-06-03
390,2759204,Beneden Veensloot,Beneden Veensloot,,53.13083,6.92361,P,PPL,NL,,4.0,1952.0,0,,-1,Europe/Amsterdam,2019-01-20
391,2759219,Beneden-Haastrecht,Beneden-Haastrecht,Beneden-Haastrect,52.00167,4.75417,P,PPL,NL,,11.0,1931.0,80,,3,Europe/Amsterdam,2017-03-24
392,2759212,Beneden-Leeuwen,Beneden-Leeuwen,Leeuwenbeneden,51.8825,5.51528,P,PPL,NL,,3.0,668.0,0,,9,Europe/Amsterdam,2017-10-17
393,2759222,Benedenberg,Benedenberg,,51.93667,4.75833,P,PPL,NL,,11.0,1931.0,0,,-1,Europe/Amsterdam,2015-05-25
394,2759221,Benedeneind,Benedeneind,,51.825,5.48611,P,PPL,NL,,6.0,828.0,0,,6,Europe/Amsterdam,2012-04-14
395,2759220,Benedeneind,Benedeneind,,52.015,5.58056,P,PPL,NL,,9.0,345.0,0,,6,Europe/Amsterdam,2007-06-03
396,2759216,Benedenheul,Benedenheul,,51.9575,4.73194,P,PPL,NL,,11.0,1931.0,230,,-1,Europe/Amsterdam,2017-03-24
397,2759215,Benedenkerk,Benedenkerk,,51.9675,4.75417,P,PPL,NL,,11.0,1931.0,260,,-1,Europe/Amsterdam,2017-03-24
398,2759205,Benedenvaart,Benedenvaart,,52.59833,6.37778,P,PPL,NL,,15.0,160.0,0,,6,Europe/Amsterdam,2007-06-03
399,2759199,Bennebroek,Bennebroek,Bennebroek,52.32083,4.59861,P,PPL,NL,,7.0,377.0,5140,,2,Europe/Amsterdam,2017-10-17
400,2759197,Bennekom,Bennekom,"Bennekom,Беннеком",51.99833,5.67639,P,PPL,NL,,3.0,228.0,14810,,19,Europe/Amsterdam,2017-10-17
401,2759193,Benneveld,Benneveld,,52.77667,6.74583,P,PPL,NL,,1.0,109.0,140,,17,Europe/Amsterdam,2017-10-17
402,2759191,Benningbroek,Benningbroek,,52.70167,5.02639,P,PPL,NL,,7.0,420.0,0,,0,Europe/Amsterdam,2017-10-17
403,2759186,Benschop,Benschop,,52.00833,4.98056,P,PPL,NL,,9.0,331.0,0,,1,Europe/Amsterdam,2017-10-17
404,2759182,Bent,Bent,,52.10583,4.55694,P,PPL,NL,,11.0,484.0,0,,-1,Europe/Amsterdam,2015-05-25
405,2759180,Bentelo,Bentelo,Benteloo,52.22417,6.68333,P,PPL,NL,,15.0,1735.0,730,,18,Europe/Amsterdam,2017-10-17
406,2759179,Benthem,Benthem,"Bentem,Benten,Bentum",51.49667,5.72361,P,PPL,NL,,6.0,1652.0,0,,18,Europe/Amsterdam,2007-06-03
407,2759178,Benthuizen,Benthuizen,,52.0775,4.54444,P,PPL,NL,,11.0,484.0,18959,,-2,Europe/Amsterdam,2017-10-17
408,2759175,Bentveld,Bentveld,,52.365,4.57222,P,PPL,NL,,7.0,473.0,0,,12,Europe/Amsterdam,2017-10-17
409,2759174,Benzenrade,Benzenrade,,50.86605,5.97596,P,PPL,NL,,5.0,917.0,200,,120,Europe/Amsterdam,2017-03-24
410,2759169,Berenbroek,Berenbroek,,51.4675,5.60694,P,PPL,NL,,6.0,1771.0,45,,19,Europe/Amsterdam,2017-03-24
411,6544774,Berendonck,Berendonck,,51.805,5.77083,P,PPL,NL,,3.0,296.0,0,,10,Europe/Amsterdam,2007-06-07
412,2759165,Berg,Berg,,50.83917,5.74861,P,PPL,NL,,5.0,1903.0,120,,79,Europe/Amsterdam,2017-03-24
413,2759164,Berg,Berg,,50.86167,5.78333,P,PPL,NL,,5.0,994.0,3200,,124,Europe/Amsterdam,2017-03-24
414,2759163,Berg,Berg,Berg aan de Maas,51.00417,5.77083,P,PPL,NL,,5.0,971.0,1985,,47,Europe/Amsterdam,2017-03-24
415,2759162,Berg,Berg,,51.27583,5.54861,P,PPL,NL,,6.0,1706.0,0,,32,Europe/Amsterdam,2007-06-03
416,2759161,Berg,Berg,,51.345,5.86111,P,PPL,NL,,5.0,1894.0,0,,30,Europe/Amsterdam,2010-09-17
417,2759147,Berg en Dal,Berg en Dal,,51.82167,5.91667,P,PPL,NL,,3.0,1945.0,1949,,95,Europe/Amsterdam,2017-10-17
418,8592090,Berg en Terblijt,Berg en Terblijt,,50.86117,5.78662,P,PPL,NL,,5.0,994.0,0,,124,Europe/Amsterdam,2017-10-17
419,2759159,Bergakker,Bergakker,,51.88667,5.38611,P,PPL,NL,,3.0,281.0,0,,4,Europe/Amsterdam,2007-06-03
420,2759158,Bergambacht,Bergambacht,,51.93417,4.78611,P,PPL,NL,,11.0,1931.0,0,,-1,Europe/Amsterdam,2017-10-17
421,2759132,Bergeijk,Bergeyk,"Bergeijk,Bergeik",51.31917,5.35833,P,PPL,NL,,6.0,1724.0,18181,,33,Europe/Amsterdam,2017-10-17
422,2759155,Bergen,Bergen,"Baerge,Bergen,Berxen,byrkhn,Берген,Բերխեն,بيرخن",51.6,6.03333,P,PPL,NL,,5.0,893.0,0,,15,Europe/Amsterdam,2010-08-31
423,2759150,Bergen aan Zee,Bergen aan Zee,"Bergen-An-Zee,Берген-Ан-Зее",52.66083,4.63056,P,PPL,NL,,7.0,373.0,415,,8,Europe/Amsterdam,2017-10-17
424,2759145,Bergen op Zoom,Bergen op Zoom,"Bergen op Zoom,Bergen-op-Zom,WOE,Берген-оп-Зом",51.495,4.29167,P,PPL,NL,,6.0,748.0,66256,,9,Europe/Amsterdam,2017-10-17
425,2759146,Bergenhuizen,Bergenhuizen,,50.77583,5.81389,P,PPL,NL,,5.0,1903.0,0,,181,Europe/Amsterdam,2012-04-14
426,2759143,Bergenshuizen,Bergenshuizen,,51.63083,5.28333,P,PPL,NL,,6.0,865.0,210,,14,Europe/Amsterdam,2017-03-24
427,2759141,Bergentheim,Bergentheim,,52.52667,6.61389,P,PPL,NL,,15.0,160.0,0,,9,Europe/Amsterdam,2017-10-17
428,2759138,Bergerden,Bergerden,,51.91917,5.92222,P,PPL,NL,,3.0,1705.0,0,,9,Europe/Amsterdam,2007-06-03
429,12036259,Bergh,Bergh,,51.88356,6.2501,P,PPL,NL,,3.0,1955.0,0,,34,Europe/Amsterdam,2019-04-06
430,2759129,Bergharen,Bergharen,,51.85083,5.66944,P,PPL,NL,,3.0,296.0,1370,,8,Europe/Amsterdam,2017-10-17
431,2759127,Berghem,Berghem,,50.80583,5.89167,P,PPL,NL,,5.0,1729.0,0,,151,Europe/Amsterdam,2007-06-03
432,2759126,Berghem,Berghem,Berchem,51.76991,5.56827,P,PPL,NL,,6.0,828.0,6500,,10,Europe/Amsterdam,2017-10-17
433,2759120,Berghuizen,Berghuizen,,51.82326,5.51754,P,PPL,NL,,3.0,668.0,0,,6,Europe/Amsterdam,2008-01-10
434,2759119,Berghuizen,Berghuizen,Berghuis,52.45083,6.08472,P,PPL,NL,,3.0,246.0,0,,4,Europe/Amsterdam,2007-06-03
435,2759118,Berghuizen,Berghuizen,,52.71333,6.29028,P,PPL,NL,,1.0,1690.0,145,,3,Europe/Amsterdam,2017-03-24
436,2759117,Berghum,Berghum,,52.36833,7.01944,P,PPL,NL,,15.0,1774.0,0,,28,Europe/Amsterdam,2007-06-03
437,2759115,Bergsche Heide,Bergsche Heide,,51.59583,6.05556,P,PPL,NL,,5.0,893.0,0,,17,Europe/Amsterdam,2009-01-12
438,2759113,Bergschenhoek,Bergschenhoek,"Bergsenkhuk,Бергсенхук",51.99,4.49861,P,PPL,NL,,11.0,1621.0,16579,,-4,Europe/Amsterdam,2017-10-17
439,2759110,Bergsebaan,Bergsebaan,,51.49015,4.43768,P,PPL,NL,,6.0,1674.0,0,,8,Europe/Amsterdam,2011-06-04
440,2759105,Bergstoep,Bergstoep,,51.9225,4.78472,P,PPL,NL,,11.0,1931.0,1205,,-1,Europe/Amsterdam,2017-03-24
441,2759104,Bergstraat,Bergstraat,,51.75,5.51667,P,PPL,NL,,6.0,828.0,0,,9,Europe/Amsterdam,2011-06-04
442,2759098,Berik,Berik,,51.23048,5.97206,P,PPL,NL,,5.0,1640.0,0,,21,Europe/Amsterdam,2009-10-09
443,2759097,Beringe,Beringe,Beringen,51.33667,5.94861,P,PPL,NL,,5.0,1894.0,1925,,37,Europe/Amsterdam,2017-10-17
444,2759096,Beringerhoek,Beringerhoek,,51.33359,5.94488,P,PPL,NL,,5.0,1894.0,0,,34,Europe/Amsterdam,2011-04-19
445,2759092,Berkeind,Berkeind,,51.55203,4.97004,P,PPL,NL,,6.0,784.0,0,,12,Europe/Amsterdam,2011-04-19
446,2759091,Berkeindje,Berkeindje,,51.41167,5.67639,P,PPL,NL,,6.0,847.0,0,,24,Europe/Amsterdam,2007-06-03
447,2759089,Berkel,Berkel,,52.00306,4.48723,P,PPL,NL,,11.0,1621.0,0,,-6,Europe/Amsterdam,2009-01-13
448,6929992,Berkel en Rodenrijs,Berkel en Rodenrijs,,51.99313,4.47865,P,PPL,NL,,11.0,1621.0,20189,,0,Europe/Amsterdam,2017-10-17
449,2759090,Berkel-Enschot,Berkel,,51.58417,5.14444,P,PPL,NL,,6.0,855.0,0,,13,Europe/Amsterdam,2017-10-17
450,2759087,Berkelaar,Berkelaar,,51.1225,5.87083,P,PPL,NL,,5.0,1711.0,275,,30,Europe/Amsterdam,2017-03-24
451,2759078,Berkenwoude,Berkenwoude,,51.945,4.70694,P,PPL,NL,,11.0,1931.0,1390,,-1,Europe/Amsterdam,2017-10-17
452,2759072,Berkhoek,Berkhoek,,51.58583,5.68472,P,PPL,NL,,6.0,755.0,0,,17,Europe/Amsterdam,2007-06-03
453,2759071,Berkhoek,Berkhoek,,51.6025,5.15,P,PPL,NL,,6.0,855.0,0,,11,Europe/Amsterdam,2007-06-03
454,2759070,Berkhout,Berkhout,,52.64083,5.00139,P,PPL,NL,,7.0,1598.0,1905,,-2,Europe/Amsterdam,2017-10-17
455,2759068,Berkmeer,Berkmeer,,52.6875,4.90278,P,PPL,NL,,7.0,1598.0,0,,-1,Europe/Amsterdam,2007-06-03
456,2759066,Berkt,Berkt,,51.4275,5.37917,P,PPL,NL,,6.0,861.0,0,,21,Europe/Amsterdam,2007-06-03
457,2759065,Berkt,Berkt,,51.71667,5.49722,P,PPL,NL,,6.0,1721.0,0,,8,Europe/Amsterdam,2007-06-03
458,2759063,Berkum-Bruggenhoek,Berkum-Bruggenhoek,,52.53021,6.1371,P,PPL,NL,,15.0,193.0,0,,1,Europe/Amsterdam,2011-06-04
459,2759059,Berlicum,Berlicum,Berlikum,51.6775,5.4,P,PPL,NL,,6.0,845.0,4250,,6,Europe/Amsterdam,2017-10-17
460,2759057,Berltsum,Berltsum,"Berlikum,Berltsum",53.2437,5.65101,P,PPL,NL,,2.0,1949.0,2530,,1,Europe/Amsterdam,2019-01-20
461,2759054,Berm,Berm,,51.78197,5.32416,P,PPL,NL,,3.0,263.0,0,,4,Europe/Amsterdam,2009-01-13
462,2759053,Bern,Bern,,51.74833,5.16528,P,PPL,NL,,3.0,297.0,0,,5,Europe/Amsterdam,2017-10-17
463,2759051,Bernissche Hoeven,Bernissche Hoeven,"Bernissche Hoeven,Bernsche Hoeven",51.66646,5.49452,P,PPL,NL,,6.0,1721.0,0,,8,Europe/Amsterdam,2012-01-17
464,2759049,Bernsterbuorren,Bernsterbuorren,"Bernsterbuorren,Bernsterburen",53.1,5.73333,P,PPL,NL,,2.0,1900.0,0,,-2,Europe/Amsterdam,2015-06-14
465,2759042,Besselaar,Besselaar,,51.61583,5.37222,P,PPL,NL,,6.0,845.0,0,,9,Europe/Amsterdam,2007-06-03
466,2759040,Best,Best,Best,51.5075,5.39028,P,PPL,NL,,6.0,753.0,29074,,17,Europe/Amsterdam,2017-10-17
467,2759038,Besthmen,Besthmen,Bestmen,52.5025,6.43056,P,PPL,NL,,15.0,175.0,0,,9,Europe/Amsterdam,2007-06-03
468,2759035,Beswerd,Beswerd,,53.28417,6.45972,P,PPL,NL,,4.0,1969.0,0,,-1,Europe/Amsterdam,2021-07-06
469,2759034,Bethlehem,Bethlehem,,53.38333,6.60972,P,PPL,NL,,4.0,1966.0,0,,1,Europe/Amsterdam,2019-01-20
470,2759030,Betterwird,Betterwird,"Betterwird,Betterwurd",53.33213,5.96751,P,PPL,NL,,2.0,1970.0,0,,-2,Europe/Amsterdam,2019-01-20
471,2759027,Beugen,Beugen,"Beugen,Boeghen,Boghen,Boghene,Bughine",51.67417,5.9375,P,PPL,NL,,6.0,1982.0,0,,14,Europe/Amsterdam,2022-09-30
472,2759025,Beugt,Beugt,,51.63917,5.5125,P,PPL,NL,,6.0,1721.0,0,,8,Europe/Amsterdam,2007-06-03
473,2759024,Beukelaar,Beukelaar,,51.61667,5.5625,P,PPL,NL,,6.0,1948.0,0,,10,Europe/Amsterdam,2017-08-16
474,2759016,Beuningen,Beuningen,Beuningen Gld,51.86083,5.76667,P,PPL,NL,,3.0,209.0,25557,,10,Europe/Amsterdam,2017-10-17
475,2759015,Beuningen,Beuningen,,52.35917,6.99861,P,PPL,NL,,15.0,168.0,0,,27,Europe/Amsterdam,2017-10-17
476,2759008,Beusbergen,Beusbergen,,52.22917,6.5,P,PPL,NL,,15.0,1735.0,0,,18,Europe/Amsterdam,2007-06-03
477,2759007,Beuseberg,Beuseberg,,52.2675,6.42083,P,PPL,NL,,15.0,1742.0,0,,14,Europe/Amsterdam,2007-06-03
478,2759006,Beusichem,Beusichem,,51.95,5.29167,P,PPL,NL,,3.0,214.0,2750,,5,Europe/Amsterdam,2017-10-17
479,2759004,Beutenaken,Beutenaken,,50.78167,5.85556,P,PPL,NL,,5.0,1729.0,40,,131,Europe/Amsterdam,2017-10-17
480,2759001,Bevermeer,Bevermeer,,51.995,6.15694,P,PPL,NL,,3.0,299.0,0,,10,Europe/Amsterdam,2007-06-03
481,2758998,Beverwijk,Beverwijk,"Berverwyk,Bevervejk,Beverwijk,Beverwyk,Beyverveyk,byfyrfayk,Бевервейк,Բեյվերվեյկ,بيفيرفايك",52.48333,4.65694,P,PPL,NL,,7.0,375.0,37585,,3,Europe/Amsterdam,2017-10-17
482,2758992,Biddinghuizen,Biddinghuizen,Biddinghuizen,52.455,5.69306,P,PPL,NL,,16.0,303.0,5010,,-3,Europe/Amsterdam,2017-10-17
483,2758991,Bieberg,Bieberg,,51.55914,4.79186,P,PPL,NL,,6.0,758.0,0,,4,Europe/Amsterdam,2011-06-04
484,2758984,Biert,Biert,,51.83833,4.28611,P,PPL,NL,,11.0,1930.0,0,,-2,Europe/Amsterdam,2015-06-14
485,2758983,Bierum,Bierum,,53.3825,6.85972,P,PPL,NL,,4.0,1979.0,605,,1,Europe/Amsterdam,2021-07-05
486,2758980,Biervliet,Biervliet,"Bierfliet,Birvlit,Бирвлит",51.32833,3.68889,P,PPL,NL,,10.0,715.0,0,,3,Europe/Amsterdam,2017-10-17
487,2758973,Bieshaar,Bieshaar,,52.18885,5.37399,P,PPL,NL,,9.0,307.0,0,,2,Europe/Amsterdam,2011-04-19
488,2758970,Biessum,Biessum,Biesum,53.33333,6.89583,P,PPL,NL,,4.0,1979.0,0,,3,Europe/Amsterdam,2021-07-05
489,2758969,Biest-Houtakker,Biest-Houtakker,Biest-Houtakker,51.50667,5.15833,P,PPL,NL,,6.0,798.0,750,,13,Europe/Amsterdam,2017-10-17
490,2758967,Biesthoek,Biesthoek,,51.62833,5.65139,P,PPL,NL,,6.0,1991.0,0,,14,Europe/Amsterdam,2022-09-30
491,2758966,Biestraat,Biestraat,,51.54583,4.925,P,PPL,NL,,6.0,784.0,0,,14,Europe/Amsterdam,2007-06-03
492,2758965,Biezelinge,Biezelinge,,51.475,3.9625,P,PPL,NL,,10.0,678.0,0,,0,Europe/Amsterdam,2007-06-03
493,2758963,Biezen,Biezen,,51.24667,3.46389,P,PPL,NL,,10.0,1714.0,0,,2,Europe/Amsterdam,2007-06-03
494,2758961,Biezenheuvel,Biezenheuvel,,51.40583,5.30417,P,PPL,NL,,6.0,1728.0,0,,26,Europe/Amsterdam,2007-06-03
495,2758959,Biezenkuilen,Biezenkuilen,,51.43333,5.43333,P,PPL,NL,,6.0,772.0,0,,21,Europe/Amsterdam,2011-06-04
496,2758958,Biezenmortel,Biezenmortel,,51.62417,5.17778,P,PPL,NL,,6.0,855.0,715,,10,Europe/Amsterdam,2021-07-06
497,2758956,Biggekerke,Biggekerke,,51.49917,3.52639,P,PPL,NL,,10.0,717.0,730,,2,Europe/Amsterdam,2017-10-17
498,2758944,Bijsteren,Bijsteren,,52.25583,5.58333,P,PPL,NL,,3.0,273.0,0,,10,Europe/Amsterdam,2007-06-03
499,2758943,Bijsterveld,Bijsterveld,,51.45076,5.35236,P,PPL,NL,,6.0,770.0,0,,21,Europe/Amsterdam,2011-04-19
500,2758941,Bijvanck,Bijvanck,"Bijvanck,De Bijvang",52.28585,5.26534,P,PPL,NL,,7.0,376.0,4560,,1,Europe/Amsterdam,2017-03-24
501,2758939,Bikbergen,Bikbergen,,52.28833,5.19861,P,PPL,NL,,7.0,406.0,285,,7,Europe/Amsterdam,2017-03-24
502,2758938,Bikkershorn,Bikkershorn,,53.1475,6.99444,P,PPL,NL,,4.0,1895.0,0,,0,Europe/Amsterdam,2010-09-17
503,2758933,Bilderdam,Bilderdam,,52.2125,4.725,P,PPL,NL,,11.0,1884.0,95,,-2,Europe/Amsterdam,2017-03-24
504,2758928,Billinghuizen,Billinghuizen,,50.7925,5.85972,P,PPL,NL,,5.0,1729.0,0,,122,Europe/Amsterdam,2007-06-03
505,6544692,Bilt,Bilt,,51.1275,5.85417,P,PPL,NL,,5.0,1641.0,0,,26,Europe/Amsterdam,2007-06-07
506,2758927,Bilthoven,Bilthoven,"Biltchoven,biltobeon,Μπιλτχόβεν,빌토번",52.13,5.20139,P,PPL,NL,,9.0,310.0,0,,6,Europe/Amsterdam,2017-10-17
507,2758922,Bingelrade,Bingelrade,,50.9761,5.92704,P,PPL,NL,,5.0,1954.0,825,,77,Europe/Amsterdam,2019-01-20
508,2758919,Bingerden,Bingerden,,51.99,6.10417,P,PPL,NL,,3.0,299.0,0,,12,Europe/Amsterdam,2007-06-03
509,2758903,Binnen-Moerdijk,Binnen-Moerdijk,De Binnen-Moerdijk,51.70083,4.66806,P,PPL,NL,,6.0,1719.0,0,,-1,Europe/Amsterdam,2007-06-03
510,2758909,Binnenheurne,Binnenheurne,"Binnenheurne,Heurne",51.93333,6.45,P,PPL,NL,,3.0,1509.0,0,,17,Europe/Amsterdam,2012-01-17
511,2758896,Binnenwijzend,Binnenwijzend,,52.68,5.14444,P,PPL,NL,,7.0,498.0,245,,-1,Europe/Amsterdam,2017-03-24
512,2758893,Birstum,Birstum,Birstum,53.07329,5.84425,P,PPL,NL,,2.0,74.0,0,,-1,Europe/Amsterdam,2015-06-14
513,2758888,Bisschopswetering,Bisschopswetering,,52.56667,5.99028,P,PPL,NL,,15.0,166.0,0,,0,Europe/Amsterdam,2007-06-03
514,2758887,Bisselt,Bisselt,,51.75667,5.90417,P,PPL,NL,,5.0,944.0,0,,79,Europe/Amsterdam,2007-06-03
515,2758886,Bissen,Bissen,,50.78833,5.90139,P,PPL,NL,,5.0,1729.0,0,,141,Europe/Amsterdam,2007-06-03
516,2759283,Bitgum,Bitgum,"Beetgum,Bitgum",53.23333,5.68333,P,PPL,NL,,2.0,1949.0,0,,-1,Europe/Amsterdam,2019-01-20
517,2759281,Bitgummole,Bitgummole,"Beetgumermolden,Beetgumermolen,Bitgummole",53.2352,5.70469,P,PPL,NL,,2.0,1949.0,0,,1,Europe/Amsterdam,2019-01-20
518,2758884,Bitswijk,Bitswijk,,51.6687,5.60921,P,PPL,NL,,6.0,1991.0,4030,,18,Europe/Amsterdam,2022-09-30
519,2758881,Blaaksedijk,Blaaksedijk,"Blaak,Blaaksche Dijk,Blaakschendijk,De Blaak",51.815,4.51111,P,PPL,NL,,11.0,1963.0,0,,-1,Europe/Amsterdam,2019-01-20
520,2758879,Blaasbalg,Blaasbalg,,51.8,4.81667,P,PPL,NL,,11.0,505.0,0,,1,Europe/Amsterdam,2012-04-14
521,2758878,Bladel,Bladel,"Bladel,bladl,Բլադել,بلادل",51.36833,5.22083,P,PPL,NL,,6.0,1728.0,9785,,33,Europe/Amsterdam,2017-10-17
522,2758876,Blaker,Blaker,,51.98167,4.27083,P,PPL,NL,,11.0,1783.0,0,,-2,Europe/Amsterdam,2007-06-03
523,6544780,Blankenberg,Blankenberg,,51.77917,5.83056,P,PPL,NL,,3.0,252.0,0,,15,Europe/Amsterdam,2007-06-07
524,2758871,Blankenham,Blankenham,,52.76417,5.89583,P,PPL,NL,,15.0,1708.0,0,,0,Europe/Amsterdam,2017-10-17
525,2758868,Blaricum,Blaricum,"Blaricum,Blarikjum,Blarikum,blarykwm,bu la li ke mu,Бларикюм,Բլարիկում,بلاريكوم,布拉里克姆",52.2725,5.24167,P,PPL,NL,,7.0,376.0,5060,,7,Europe/Amsterdam,2017-10-17
526,2758864,Blauw,Blauw,,53.1275,6.36806,P,PPL,NL,,4.0,1969.0,0,,4,Europe/Amsterdam,2019-01-20
527,2758862,Blauwe Hand,Blauwe Hand,,52.6925,6.07639,P,PPL,NL,,15.0,1708.0,0,,-1,Europe/Amsterdam,2007-06-03
528,2758856,Blauwe Sluis,Blauwe Sluis,,51.59333,4.36944,P,PPL,NL,,6.0,851.0,0,,-1,Europe/Amsterdam,2007-06-03
529,2758855,Blauwe Sluis,Blauwe Sluis,,51.69333,4.69861,P,PPL,NL,,6.0,1719.0,125,,1,Europe/Amsterdam,2017-03-24
530,2758858,Blauwenhoek,Blauwenhoek,,51.60083,5.87222,P,PPL,NL,,6.0,1982.0,0,,19,Europe/Amsterdam,2022-09-30
531,2758854,Blauwesluis,Blauwesluis,,51.84083,5.55139,P,PPL,NL,,3.0,668.0,0,,6,Europe/Amsterdam,2007-06-03
532,8299268,Blauwestad,Blauwestad,,53.16648,7.03623,P,PPL,NL,,4.0,1895.0,0,,-4,Europe/Amsterdam,2017-10-17
533,2758852,Blauwewijk,Blauwewijk,,51.51917,3.85278,P,PPL,NL,,10.0,664.0,0,,2,Europe/Amsterdam,2007-06-03
534,2758851,Blauwhuis,Blauwhuis,,53.02134,5.53359,P,PPL,NL,,2.0,1900.0,590,,1,Europe/Amsterdam,2017-10-17
535,2758850,Blauwkapel,Blauwkapel,,52.1125,5.15278,P,PPL,NL,,9.0,310.0,125,,3,Europe/Amsterdam,2017-03-24
536,2758849,Blauwverlaat,Blauwverlaat,"Blauferlaat,Blauforlaet,Blauwverlaat",53.22582,6.17354,P,PPL,NL,,2.0,59.0,0,,1,Europe/Amsterdam,2008-11-05
537,2758840,Bleijenbeek,Bleijenbeek,"Bleienbeek,Blijenbeek",51.635,6.05139,P,PPL,NL,,5.0,893.0,0,,16,Europe/Amsterdam,2007-06-03
538,6544853,Bleijs,Bleijs,,51.47833,5.74306,P,PPL,NL,,6.0,762.0,0,,21,Europe/Amsterdam,2007-06-07
539,2758838,Bleiswijk,Bleiswijk,,52.01083,4.53194,P,PPL,NL,,11.0,1621.0,10549,,-2,Europe/Amsterdam,2017-10-17
540,2758835,Blekkink,Blekkink,,51.92356,6.66219,P,PPL,NL,,3.0,294.0,0,,37,Europe/Amsterdam,2011-06-04
541,2758833,Blekslage,Blekslage,,52.99,7.06389,P,PPL,NL,,4.0,37.0,0,,2,Europe/Amsterdam,2007-06-03
542,2758832,Blenkert,Blenkert,,51.2675,5.89861,P,PPL,NL,,5.0,1640.0,0,,30,Europe/Amsterdam,2007-06-03
543,2758831,Blerick,Blerick,"Blerik,Blierik",51.37167,6.14861,P,PPL,NL,,5.0,983.0,0,,19,Europe/Amsterdam,2007-06-03
544,2758828,Blesdijke,Blesdijke,Blesdijk,52.83077,6.01429,P,PPL,NL,,2.0,98.0,325,,4,Europe/Amsterdam,2017-10-17
545,2758825,Bleskensgraaf,Bleskensgraaf,Bleskensgraaf ca,51.8725,4.78333,P,PPL,NL,,11.0,1978.0,2800,,0,Europe/Amsterdam,2019-01-20
546,2758821,Blessum,Blessum,Blessum,53.18096,5.71014,P,PPL,NL,,2.0,1949.0,85,,2,Europe/Amsterdam,2019-01-20
547,2758816,Blijdenstein,Blijdenstein,,52.71167,6.25,P,PPL,NL,,1.0,1690.0,0,,3,Europe/Amsterdam,2007-06-03
548,2758820,Blije,Blije,Blija,53.35193,5.86138,P,PPL,NL,,2.0,1970.0,610,,1,Europe/Amsterdam,2019-01-20
549,2758815,Blijham,Blijham,,53.10917,7.07639,P,PPL,NL,,4.0,1950.0,2060,,-2,Europe/Amsterdam,2019-01-20
550,2758814,Blikhalm,Blikhalm,,51.45,5.7,P,PPL,NL,,6.0,794.0,0,,20,Europe/Amsterdam,2009-01-14
551,2758809,Blitterswijck,Blitterswijck,Blitterswijk,51.53083,6.10833,P,PPL,NL,,5.0,984.0,1105,,17,Europe/Amsterdam,2017-10-17
552,2758807,Bloemberg,Bloemberg,,52.65167,6.35278,P,PPL,NL,,1.0,1690.0,0,,3,Europe/Amsterdam,2007-06-03
553,2758805,Bloemendaal,Bloemendaal,,52.04205,4.67271,P,PPL,NL,,11.0,627.0,0,,-3,Europe/Amsterdam,2011-04-19
554,2758804,Bloemendaal,Bloemendaal,Bloemendaal,52.4025,4.62222,P,PPL,NL,,7.0,377.0,3905,,4,Europe/Amsterdam,2017-10-17
555,2758799,Bloemendaal aan Zee,Bloemendaal aan Zee,Bloemendaal aan Zee,52.40166,4.54452,P,PPL,NL,,7.0,377.0,0,,12,Europe/Amsterdam,2016-02-20
556,2758791,Blokdijk,Blokdijk,,52.65667,5.14167,P,PPL,NL,,7.0,498.0,0,,-1,Europe/Amsterdam,2007-06-03
557,2758788,Blokhuizen,Blokhuizen,,52.75167,4.83056,P,PPL,NL,,7.0,1911.0,0,,0,Europe/Amsterdam,2012-11-25
558,2744770,Blokker,Blokker,Blokker,52.66417,5.1,P,PPL,NL,,7.0,405.0,0,,-1,Europe/Amsterdam,2017-10-17
559,2758786,Blokland,Blokland,,52.03667,4.96111,P,PPL,NL,,9.0,335.0,140,,0,Europe/Amsterdam,2017-03-24
560,2758785,Blokland,Blokland,,52.21167,4.78333,P,PPL,NL,,11.0,569.0,0,,-4,Europe/Amsterdam,2007-06-03
561,2758780,Blokum,Blokum,,53.26,6.71944,P,PPL,NL,,4.0,1952.0,0,,-1,Europe/Amsterdam,2019-01-20
562,2758777,Blokzijl,Blokzijl,,52.72667,5.96111,P,PPL,NL,,15.0,1708.0,1110,,3,Europe/Amsterdam,2017-10-17
563,2758772,Bobeldijk,Bobeldijk,,52.65333,5.0,P,PPL,NL,,7.0,1598.0,300,,-1,Europe/Amsterdam,2017-03-24
564,2758770,Bocholtz,Bocholtz,"Boches,Bocholz,Bóches",50.81833,6.00556,P,PPL,NL,,5.0,965.0,4340,,166,Europe/Amsterdam,2017-10-17
565,2758768,Bocholtzerheide,Bocholtzerheide,,50.81583,5.99028,P,PPL,NL,,5.0,965.0,515,,178,Europe/Amsterdam,2017-03-24
566,2758767,Boddenbroek,Boddenbroek,,51.5125,6.05694,P,PPL,NL,,5.0,984.0,0,,20,Europe/Amsterdam,2007-06-03
567,2758765,Bodegraven,Bodegraven,,52.0825,4.75,P,PPL,NL,,11.0,1901.0,19395,,2,Europe/Amsterdam,2017-10-17
568,2758762,Boeicop,Boeicop,"Boeicop,Boeikoop,Boeikop",51.93333,5.11667,P,PPL,NL,,9.0,1961.0,0,,0,Europe/Amsterdam,2019-01-20
569,2758761,Boeiink,Boeiink,,51.52917,4.41528,P,PPL,NL,,6.0,1674.0,0,,4,Europe/Amsterdam,2007-06-03
570,2758759,Boekel,Boekel,,51.60333,5.675,P,PPL,NL,,6.0,755.0,5480,,19,Europe/Amsterdam,2017-10-17
571,2758758,Boekel,Boekel,,52.59,4.75417,P,PPL,NL,,7.0,383.0,20,,1,Europe/Amsterdam,2010-03-04
572,2758755,Boekelo,Boekelo,Boekeloo,52.20417,6.79861,P,PPL,NL,,15.0,153.0,0,,27,Europe/Amsterdam,2007-06-03
573,2758754,Boekend,Boekend,,51.37833,6.11667,P,PPL,NL,,5.0,983.0,900,,22,Europe/Amsterdam,2009-01-10
574,2758752,Boekenderbos,Boekenderbos,,51.31667,6.03333,P,PPL,NL,,5.0,1894.0,0,,40,Europe/Amsterdam,2011-06-04
575,2758750,Boeket,Boeket,,51.28962,5.7268,P,PPL,NL,,5.0,946.0,0,,32,Europe/Amsterdam,2009-01-12
576,2758748,Boelenslaan,Boelenslaan,"Boelenslaan,Boelensloane,Surhuisterveensterheide",53.1617,6.14479,P,PPL,NL,,2.0,59.0,695,,4,Europe/Amsterdam,2017-10-17
577,2758747,Boer,Boer,Boer,53.21585,5.56533,P,PPL,NL,,2.0,1949.0,45,,1,Europe/Amsterdam,2019-01-20
578,2758746,Boerakker,Boerakker,,53.1875,6.32778,P,PPL,NL,,4.0,1969.0,365,,1,Europe/Amsterdam,2019-01-20
579,2758742,Boerdonk,Boerdonk,,51.55917,5.625,P,PPL,NL,,6.0,1948.0,535,,13,Europe/Amsterdam,2017-08-16
580,2758740,Boerelaan,Boerelaan,,53.1325,6.49167,P,PPL,NL,,1.0,1699.0,0,,2,Europe/Amsterdam,2007-06-03
581,2758738,Boerengat,Boerengat,,51.33083,3.79861,P,PPL,NL,,10.0,715.0,0,,-1,Europe/Amsterdam,2007-06-03
582,2758736,Boerenhoek,Boerenhoek,,51.90583,5.97639,P,PPL,NL,,3.0,1705.0,0,,10,Europe/Amsterdam,2007-06-03
583,2758735,Boerenhol,Boerenhol,,51.38333,3.54028,P,PPL,NL,,10.0,1714.0,0,,0,Europe/Amsterdam,2007-06-03
584,2758734,Boerenstreek,Boerenstreek,,53.11583,6.34583,P,PPL,NL,,4.0,1969.0,85,,4,Europe/Amsterdam,2019-01-20
585,2758730,Boerhaar,Boerhaar,,52.37583,6.15139,P,PPL,NL,,15.0,1773.0,0,,3,Europe/Amsterdam,2007-06-03
586,2758729,Boermastreek,Boermastreek,,52.88362,6.90221,P,PPL,NL,,1.0,1681.0,0,,7,Europe/Amsterdam,2013-03-31
587,2758722,Boesingheliede,Boesingheliede,,52.36083,4.725,P,PPL,NL,,7.0,394.0,140,,-5,Europe/Amsterdam,2017-10-17
588,2758720,Boetele,Boetele,"Boetele,Boeteloo",52.37244,6.30531,P,PPL,NL,,15.0,177.0,0,,7,Europe/Amsterdam,2012-01-17
589,2758718,Boevenheuvel,Boevenheuvel,,51.35,5.35,P,PPL,NL,,6.0,1724.0,0,,26,Europe/Amsterdam,2011-06-04
590,2758713,Bogaard,Bogaard,,51.62894,5.44076,P,PPL,NL,,6.0,1948.0,0,,8,Europe/Amsterdam,2017-08-16
591,2758453,Boijl,Boijl,"Beuil,Beul,Boijl,Boil,Boyl,Boyle",52.90921,6.19972,P,PPL,NL,,2.0,98.0,525,,6,Europe/Amsterdam,2017-10-17
592,2758709,Bokhorst,Bokhorst,,51.46887,5.6842,P,PPL,NL,,6.0,794.0,0,,19,Europe/Amsterdam,2011-06-04
593,2758708,Bokhoven,Bokhoven,,51.7375,5.23056,P,PPL,NL,,6.0,796.0,280,,4,Europe/Amsterdam,2017-03-24
594,2758703,Boksheide,Boksheide,,51.32583,5.30833,P,PPL,NL,,6.0,770.0,0,,32,Europe/Amsterdam,2007-06-03
595,2758458,Boksum,Boksum,Boksum,53.1779,5.72971,P,PPL,NL,,2.0,1949.0,360,,1,Europe/Amsterdam,2019-01-20
596,2758699,Bokt,Bokt,,51.49,5.50139,P,PPL,NL,,6.0,772.0,125,,16,Europe/Amsterdam,2017-03-24
597,2758696,Bolberg,Bolberg,,51.56417,4.84306,P,PPL,NL,,6.0,758.0,0,,6,Europe/Amsterdam,2007-06-03
598,2758697,Bolberg,Bolberg,,51.53417,4.93472,P,PPL,NL,,6.0,784.0,0,,17,Europe/Amsterdam,2007-06-03
599,2758694,Bolenberg,Bolenberg,,51.30333,6.11389,P,PPL,NL,,5.0,983.0,10,,23,Europe/Amsterdam,2017-03-24
600,2758689,Bollendorp,Bollendorp,,52.58333,4.68333,P,PPL,NL,,7.0,399.0,0,,2,Europe/Amsterdam,2008-01-24
601,2758688,Bollingawier,Bollingawier,"Bollingawier,Bollingwier",53.38056,6.03767,P,PPL,NL,,2.0,1970.0,0,,0,Europe/Amsterdam,2019-01-20
602,2758686,Bolnes,Bolnes,,51.895,4.57917,P,PPL,NL,,11.0,597.0,7650,,-1,Europe/Amsterdam,2017-03-24
603,2758684,Bolshuizen,Bolshuizen,,53.3,6.47917,P,PPL,NL,,4.0,1969.0,0,,0,Europe/Amsterdam,2021-07-06
604,2758683,Bolst,Bolst,,51.60667,5.60139,P,PPL,NL,,6.0,1948.0,0,,10,Europe/Amsterdam,2017-08-16
605,2758682,Bolsward,Bolsward,"Boalsert,Bolsvard,Bolsward,Gemeen Bolsward,bo er si wa de,bolseubaleuteu,borusuvuaruto,Болсвард,ボルスヴァルト,博尔斯瓦德,볼스바르트",53.06555,5.53176,P,PPL,NL,,2.0,1900.0,9160,,2,Europe/Amsterdam,2023-03-07
606,2758671,Bommelskous,Bommelskous,Bemmelskous,51.76583,4.40972,P,PPL,NL,,11.0,1963.0,0,,-1,Europe/Amsterdam,2019-01-20
607,2758670,Bommenede,Bommenede,Bommenede,51.73333,3.93333,P,PPL,NL,,10.0,,0,,0,Europe/Amsterdam,2012-01-17
608,2758667,Bommerig,Bommerich,,50.77917,5.92778,P,PPL,NL,,5.0,1729.0,0,,144,Europe/Amsterdam,2007-06-03
609,2758663,Bong,Bong,,51.43167,6.17083,P,PPL,NL,,5.0,983.0,0,,24,Europe/Amsterdam,2010-09-17
610,2758657,Bonkwerd,Bonkwerd,,53.1339,5.60457,P,PPL,NL,,2.0,1949.0,0,,-2,Europe/Amsterdam,2019-01-20
611,2758656,Bonnen,Bonnen,,53.005,6.77778,P,PPL,NL,,1.0,1680.0,0,,15,Europe/Amsterdam,2007-06-03
612,2758655,Bonnerveen,Bonnerveen,,53.01333,6.83194,P,PPL,NL,,1.0,1680.0,95,,3,Europe/Amsterdam,2017-03-24
613,2758652,Bonrepas,Bonrepas,,51.96333,4.84444,P,PPL,NL,,11.0,1931.0,130,,-2,Europe/Amsterdam,2017-03-24
614,2758651,Bontebok,Bontebok,,52.9626,6.02514,P,PPL,NL,,2.0,74.0,410,,1,Europe/Amsterdam,2017-10-17
615,2758650,Bontebrug,Bontebrug,Nieuwdorp,51.89417,6.39583,P,PPL,NL,,3.0,1509.0,0,,16,Europe/Amsterdam,2007-06-03
616,2758648,Bontemorgen,Bontemorgen,,51.96333,5.52083,P,PPL,NL,,3.0,214.0,0,,5,Europe/Amsterdam,2007-06-03
617,2758643,Boomen,Boomen,,51.41917,5.69306,P,PPL,NL,,6.0,847.0,0,,23,Europe/Amsterdam,2007-06-03
618,6544751,Boomhoek,Boomhoek,,52.18833,5.09583,P,PPL,NL,,7.0,1696.0,295,,0,Europe/Amsterdam,2017-03-24
619,2758640,Boompjesdijk,Boompjesdijk,"Boompjes,Drogendijk",51.62167,4.31806,P,PPL,NL,,6.0,851.0,110,,-2,Europe/Amsterdam,2017-03-24
620,2758636,Booneschans,Booneschans,,53.16167,7.17222,P,PPL,NL,,4.0,1895.0,0,,-3,Europe/Amsterdam,2010-09-17
621,2758634,Boord,Boord,,51.46917,5.52222,P,PPL,NL,,6.0,820.0,0,,16,Europe/Amsterdam,2007-06-03
622,2758633,Boornbergum,Boornbergum,"Boarnburgum,Boornbergum",53.08284,6.04578,P,PPL,NL,,2.0,90.0,1660,,2,Europe/Amsterdam,2017-10-17
623,2758629,Boornzwaag,Boornzwaag,"Boarnsweach,Boornzwaag",52.95888,5.7443,P,PPL,NL,,2.0,1940.0,105,,2,Europe/Amsterdam,2017-10-17
624,2758628,Boornzwaag over de Wielen,Boornzwaag over de Wielen,"Boarnsweach oer de Wielen,Boornzwaag over de Wielen",52.95,5.75,P,PPL,NL,,2.0,1940.0,0,,-1,Europe/Amsterdam,2017-04-13
625,2758626,Borculo,Borculo,"Berkelland,Borkulo",52.11583,6.52222,P,PPL,NL,,3.0,1859.0,10373,,18,Europe/Amsterdam,2017-10-17
626,2758621,Borger,Borger,"Borger,bwrkhr,Боргер,بورخر",52.92333,6.79306,P,PPL,NL,,1.0,1681.0,4570,,15,Europe/Amsterdam,2017-10-17
627,2758618,Borgercompagnie,Borgercompagnie,,53.12333,6.81389,P,PPL,NL,,4.0,47.0,0,,0,Europe/Amsterdam,2017-10-17
628,2758615,Borgertange,Borgertange,,52.9375,7.1125,P,PPL,NL,,4.0,1950.0,0,,8,Europe/Amsterdam,2019-01-20
629,6544926,Borgerveld,Borgerveld,,52.93167,7.11389,P,PPL,NL,,4.0,1950.0,0,,7,Europe/Amsterdam,2019-01-20
630,2758611,Borgharen,Borgharen,Bowgraven,50.8775,5.6875,P,PPL,NL,,5.0,935.0,1735,,47,Europe/Amsterdam,2017-03-24
631,2758607,Borgsweer,Borgsweer,Borgweg,53.29833,7.0125,P,PPL,NL,,4.0,1979.0,125,,-2,Europe/Amsterdam,2021-07-05
632,2758605,Borgweg,Borgweg,,53.17833,6.7125,P,PPL,NL,,4.0,1952.0,0,,-2,Europe/Amsterdam,2019-01-20
633,2758604,Borkel,Borkel,,51.2975,5.44028,P,PPL,NL,,6.0,858.0,595,,32,Europe/Amsterdam,2017-03-24
634,2758603,Borkeld,Borkeld,"De Boikeld,De Borkeld",52.27583,6.46667,P,PPL,NL,,15.0,1742.0,0,,23,Europe/Amsterdam,2007-06-03
635,2758602,Born,Born,Bor,51.03167,5.80972,P,PPL,NL,,5.0,1883.0,2430,,38,Europe/Amsterdam,2017-10-17
636,2758599,Borne,Borne,,51.62,5.41667,P,PPL,NL,,6.0,1948.0,0,,8,Europe/Amsterdam,2017-08-16
637,6544867,Borneo,Borneo,,51.6775,5.775,P,PPL,NL,,6.0,1982.0,0,,20,Europe/Amsterdam,2022-09-30
638,2758595,Bornerbroek,Bornerbroek,Bornebroek,52.30917,6.65417,P,PPL,NL,,15.0,141.0,970,,12,Europe/Amsterdam,2017-10-17
639,2758591,Bornwird,Bornwird,"Boarnwert,Bornwerd,Bornwird",53.33379,5.95407,P,PPL,NL,,2.0,1970.0,120,,0,Europe/Amsterdam,2019-01-20
640,2758590,Bornwirdhuizen,Bornwirdhuizen,"Boarnwerterhuzen,Bornwirdhuizen",53.33333,5.98333,P,PPL,NL,,2.0,1970.0,0,,-1,Europe/Amsterdam,2019-01-20
641,2758587,Borssele,Borssele,"Borsele,Borssel',Borssele,Borsselen,Bossele,Борссель",51.42333,3.73472,P,PPL,NL,,10.0,654.0,22285,,5,Europe/Amsterdam,2020-02-20
642,2758583,Borteldonk,Borteldonk,,51.50417,4.46667,P,PPL,NL,,6.0,1674.0,155,,9,Europe/Amsterdam,2017-03-24
643,2758582,Bosch,Bosch,,51.27,5.59167,P,PPL,NL,,6.0,1706.0,0,,31,Europe/Amsterdam,2007-06-06
644,2758579,Bosch en Duin,Bosch en Duin,,52.11667,5.24167,P,PPL,NL,,9.0,355.0,1675,,13,Europe/Amsterdam,2017-10-17
645,2758580,Boscheind,Boscheind,,51.2825,5.30694,P,PPL,NL,,6.0,1724.0,0,,39,Europe/Amsterdam,2007-06-03
646,2758577,Boschheurne,Boschheurne,,52.11167,6.45833,P,PPL,NL,,3.0,262.0,0,,14,Europe/Amsterdam,2007-06-03
647,6544750,Boschhoven,Boschhoven,,51.35583,5.54861,P,PPL,NL,,6.0,1658.0,0,,27,Europe/Amsterdam,2007-06-07
648,2759555,Boschhoven,Baarle-Boshoven,"Baarle Boschoven,Baarle Bosschoven,Boschhoven",51.4575,4.93889,P,PPL,NL,,6.0,744.0,0,,25,Europe/Amsterdam,2007-06-03
649,2758573,Boschkens,Boschkens,,51.53333,5.06389,P,PPL,NL,,6.0,785.0,0,,21,Europe/Amsterdam,2007-06-03
650,2758570,Boschoord,Boschoord,,52.89813,6.22676,P,PPL,NL,,1.0,1701.0,0,,8,Europe/Amsterdam,2017-10-17
651,2758566,Boschweg,Boschweg,,51.63054,5.41776,P,PPL,NL,,6.0,1948.0,0,,8,Europe/Amsterdam,2017-08-16
652,2758562,Boshoek,Boshoek,,52.34083,6.03611,P,PPL,NL,,3.0,232.0,0,,4,Europe/Amsterdam,2007-06-03
653,2758555,Boshoven,Boshoven,,51.35321,5.55259,P,PPL,NL,,6.0,1658.0,0,,26,Europe/Amsterdam,2011-06-04
654,2758556,Boshoven,Boshoven,,51.34583,5.37778,P,PPL,NL,,6.0,1724.0,0,,26,Europe/Amsterdam,2007-06-03
655,2758557,Boshoven,Boshoven,"Boschoven,Boshoven-Vrakker",51.2625,5.68472,P,PPL,NL,,5.0,988.0,0,,33,Europe/Amsterdam,2007-06-03
656,2759873,Boshoven,Alphen-Boshoven,"Alfen-Boschoven,Alphen Boschoven,Alphen Bosschoven,Boschhoven",51.46333,4.94861,P,PPL,NL,,6.0,1723.0,0,,25,Europe/Amsterdam,2007-06-03
657,2758552,Boshuijzen,Boshuizen,,51.5375,6.00139,P,PPL,NL,,5.0,984.0,0,,24,Europe/Amsterdam,2007-06-03
658,2758550,Bosje,Bosje,,53.02417,6.86806,P,PPL,NL,,1.0,1680.0,0,,3,Europe/Amsterdam,2007-06-03
659,2758549,Boskamp,Boskamp,,52.33083,6.12778,P,PPL,NL,,15.0,1773.0,1150,,4,Europe/Amsterdam,2008-12-21
660,6544766,Boskant,Boskant,Boschkant,51.78903,5.76465,P,PPL,NL,,3.0,296.0,0,,8,Europe/Amsterdam,2009-01-13
661,2758575,Boskant,Boskant,Boskant,51.55,5.42083,P,PPL,NL,,6.0,1948.0,790,,11,Europe/Amsterdam,2017-08-16
662,2758547,Boskoop,Boskoop,"Boskop,bo si ke pu,Боскоп,Բոսկոպ,博斯科普",52.075,4.65556,P,PPL,NL,,11.0,484.0,15222,,-2,Europe/Amsterdam,2017-10-17
663,2758545,Boslust,Boslust,,51.4825,4.975,P,PPL,NL,,6.0,1723.0,0,,23,Europe/Amsterdam,2007-06-03
664,2758540,Bosschenhoofd,Bosschenhoofd,,51.56083,4.54028,P,PPL,NL,,6.0,1655.0,1925,,9,Europe/Amsterdam,2017-10-17
665,2758539,Bosschenhuizen,Bosschenhuizen,,50.83583,5.95833,P,PPL,NL,,5.0,965.0,0,,178,Europe/Amsterdam,2007-06-03
666,2758538,Bosscherheide,Bosscherheide,Bosserheide,51.57083,6.08333,P,PPL,NL,,5.0,893.0,0,,25,Europe/Amsterdam,2007-06-03
667,2758534,Bosserstraat,Bosserstraat,,51.29417,5.74861,P,PPL,NL,,5.0,946.0,0,,31,Europe/Amsterdam,2007-06-03
668,2758532,Boteburen,Boteburen,,53.35,5.85,P,PPL,NL,,2.0,1970.0,0,,-1,Europe/Amsterdam,2019-01-20
669,2758527,Boterveen,Boterveen,,52.86417,6.38611,P,PPL,NL,,1.0,1701.0,0,,9,Europe/Amsterdam,2007-06-03
670,2758526,Boterwijk,Boterwijk,,51.51083,5.29028,P,PPL,NL,,6.0,823.0,0,,14,Europe/Amsterdam,2007-06-03
671,2758521,Botshol,Botshol,,52.24391,4.90293,P,PPL,NL,,9.0,736.0,0,,-6,Europe/Amsterdam,2011-04-19
672,2758520,Botshoofd,Botshoofd,,51.5575,4.23056,P,PPL,NL,,10.0,716.0,0,,1,Europe/Amsterdam,2007-06-03
673,2758518,Bouchauterhaven,Bouchauterhaven,"Boechouterhaven,Haventje van Bouchaute",51.27417,3.72361,P,PPL,NL,,10.0,715.0,0,,0,Europe/Amsterdam,2007-06-03
674,2758517,Boudewijnskerke,Boudewijnskerke,,51.52333,3.47639,P,PPL,NL,,10.0,717.0,0,,0,Europe/Amsterdam,2007-06-03
675,2758516,Boukoul,Boukoul,Boukoel,51.21583,6.04722,P,PPL,NL,,5.0,957.0,935,,28,Europe/Amsterdam,2017-03-24
676,2758514,Bourtange,Bourtange,"Boertang,Boertange",53.01,7.19028,P,PPL,NL,,4.0,1950.0,425,,5,Europe/Amsterdam,2019-01-20
677,2758510,Bouwberg,Bouwberg,,50.95491,5.99373,P,PPL,NL,,5.0,899.0,125,,86,Europe/Amsterdam,2017-03-24
678,2758509,Bouwerschap,Bouwerschap,,53.27366,6.70732,P,PPL,NL,,4.0,14.0,0,,-1,Europe/Amsterdam,2019-01-20
679,6544786,Boven Pekela,Boven Pekela,,53.03417,6.93333,P,PPL,NL,,4.0,765.0,0,,2,Europe/Amsterdam,2007-06-07
680,2758468,Boven Veensloot,Boven Veensloot,,53.125,6.91667,P,PPL,NL,,4.0,47.0,0,,0,Europe/Amsterdam,2007-06-03
681,2758501,Boven-Haastrecht,Boven-Haastrecht,,52.00917,4.79444,P,PPL,NL,,11.0,1931.0,215,,-2,Europe/Amsterdam,2017-03-24
682,2758500,Boven-Hardinxveld,Boven-Hardinxveld,"Boven Hardingsveld,Hardingsveld,Hardinxveld",51.82333,4.88194,P,PPL,NL,,11.0,523.0,4500,,2,Europe/Amsterdam,2017-10-18
683,2758490,Boven-Leeuwen,Boven-Leeuwen,Leeuwen,51.885,5.55278,P,PPL,NL,,3.0,668.0,0,,9,Europe/Amsterdam,2017-10-17
684,2758506,Bovenberg,Bovenberg,,51.95583,4.82778,P,PPL,NL,,11.0,1931.0,0,,-2,Europe/Amsterdam,2015-05-25
685,2758505,Bovenburen,Bovenburen,,52.9254,5.46592,P,PPL,NL,,2.0,1900.0,0,,2,Europe/Amsterdam,2012-04-14
686,2758503,Bovendijks,Bovendijks,,53.31667,6.78333,P,PPL,NL,,4.0,1979.0,0,,0,Europe/Amsterdam,2021-07-05
687,2758502,Boveneind,Boveneind,,51.81417,5.51111,P,PPL,NL,,6.0,828.0,0,,5,Europe/Amsterdam,2012-04-14
688,6544767,Boveneinde,Boveneinde,,52.1925,5.78056,P,PPL,NL,,3.0,203.0,0,,37,Europe/Amsterdam,2007-06-07
689,2758498,Bovenkarspel,Bovenkarspel,,52.69667,5.24028,P,PPL,NL,,7.0,532.0,0,,-1,Europe/Amsterdam,2017-10-17
690,2758496,Bovenkerk,Bovenkerk,,51.975,4.7875,P,PPL,NL,,11.0,1931.0,215,,-4,Europe/Amsterdam,2017-03-24
691,2758495,Bovenkerk,Bovenkerk,,52.2925,4.83333,P,PPL,NL,,7.0,362.0,0,,-3,Europe/Amsterdam,2007-06-03
692,2758484,Bovenrijge,Bovenrijge,,53.27167,6.66389,P,PPL,NL,,4.0,14.0,0,,-1,Europe/Amsterdam,2019-01-20
693,2758480,Bovensluis,Bovensluis,,51.6825,4.47639,P,PPL,NL,,6.0,1709.0,0,,-3,Europe/Amsterdam,2007-06-03
694,2758479,Bovensmilde,Bovensmilde,,52.97583,6.48194,P,PPL,NL,,1.0,1731.0,0,,12,Europe/Amsterdam,2017-10-17
695,2758477,Bovenstad,Bovenstad,,51.93333,4.81667,P,PPL,NL,,11.0,1931.0,160,,1,Europe/Amsterdam,2017-03-24
696,2758474,Bovenstehuis,Bovenste Huis,,51.61583,5.67917,P,PPL,NL,,6.0,755.0,0,,19,Europe/Amsterdam,2007-06-03
697,2758473,Bovenstreek,Bovenstreek,,52.43333,5.9,P,PPL,NL,,3.0,269.0,300,,5,Europe/Amsterdam,2017-03-24
698,2758472,Bovenstreek,Bovenstreek,,53.02333,6.85417,P,PPL,NL,,1.0,1680.0,0,,2,Europe/Amsterdam,2007-06-03
699,2758471,Bovenstreek,Bovenstreek,,53.125,6.95972,P,PPL,NL,,4.0,1952.0,0,,-1,Europe/Amsterdam,2019-01-20
700,2758469,Bovenveen,Bovenveen,,52.42583,5.89861,P,PPL,NL,,3.0,269.0,0,,8,Europe/Amsterdam,2007-06-03
701,2758462,Boxmeer,Boxmeer,"Boc's Mere,Boksmaer,Boksmeer,Boxmeer,Meer,Mere",51.64667,5.94722,P,PPL,NL,,6.0,1982.0,12407,,15,Europe/Amsterdam,2022-09-30
702,2758460,Boxtel,Boxtel,"Bokstel,Boxtel,bwkstl,Бокстел,Բոքստել,بوكستل",51.59083,5.32917,P,PPL,NL,,6.0,757.0,29511,,9,Europe/Amsterdam,2017-10-17
703,2758452,Bozum,Bozum,"Boazum,Bozum",53.08804,5.69521,P,PPL,NL,,2.0,1900.0,0,,1,Europe/Amsterdam,2019-01-20
704,2758450,Braakhoek,Braakhoek,,51.40333,5.17639,P,PPL,NL,,6.0,1667.0,0,,30,Europe/Amsterdam,2007-06-03
705,2758443,Braakpeel,Braakpeel,,51.28165,5.79727,P,PPL,NL,,5.0,946.0,0,,30,Europe/Amsterdam,2011-06-04
706,2758439,Braamberg,Braamberg,,52.64744,6.50305,P,PPL,NL,,1.0,1690.0,0,,8,Europe/Amsterdam,2008-05-03
707,2758438,Braamberg,Braamberg,,52.94233,7.04794,P,PPL,NL,,4.0,37.0,0,,7,Europe/Amsterdam,2009-10-09
708,2758436,Braambosch,Braambosch,,51.34333,5.4125,P,PPL,NL,,6.0,1724.0,0,,25,Europe/Amsterdam,2007-06-03
709,2758434,Braamt,Braamt,,51.92333,6.26528,P,PPL,NL,,3.0,1955.0,675,,16,Europe/Amsterdam,2017-10-17
710,2758431,Brabander,Brabander,De Brabander,51.53583,5.96806,P,PPL,NL,,5.0,984.0,1680,,24,Europe/Amsterdam,2017-03-24
711,2758429,Brachterbeek,Brachterbeek,Brachterbaek,51.14694,5.90446,P,PPL,NL,,5.0,1641.0,1220,,28,Europe/Amsterdam,2017-03-24
712,2758426,Brakel,Brakel,,51.8175,5.09028,P,PPL,NL,,3.0,297.0,2555,,3,Europe/Amsterdam,2017-10-17
713,2758427,Brakel,Brakel,,51.51417,4.99861,P,PPL,NL,,6.0,785.0,0,,18,Europe/Amsterdam,2007-06-03
714,2758421,Brakkenstraat,Brakkenstraat,,51.55066,4.65597,P,PPL,NL,,6.0,777.0,0,,7,Europe/Amsterdam,2011-06-04
715,2758417,Brammelo,Brammelo,Brammeloo,52.1525,6.67778,P,PPL,NL,,15.0,158.0,0,,20,Europe/Amsterdam,2007-06-03
716,2758415,Brand,Brand,,51.68833,5.67361,P,PPL,NL,,6.0,1991.0,0,,20,Europe/Amsterdam,2022-09-30
717,2758416,Brand,Brand,,51.45839,5.62427,P,PPL,NL,,6.0,1771.0,1270,,19,Europe/Amsterdam,2017-03-24
718,2758413,Brandeburen,Brandeburen,,52.94641,5.49419,P,PPL,NL,,2.0,1900.0,0,,-2,Europe/Amsterdam,2012-04-14
719,2758410,Brandemolen,Brandemolen,,51.48417,6.19306,P,PPL,NL,,5.0,983.0,0,,19,Europe/Amsterdam,2010-09-17
720,2758406,Brandt,Brandt,,51.13667,5.86111,P,PPL,NL,,5.0,1641.0,0,,26,Europe/Amsterdam,2007-06-03
721,2758405,Brandwijk,Brandwijk,,51.89083,4.81389,P,PPL,NL,,11.0,1978.0,280,,-3,Europe/Amsterdam,2019-01-20
722,2758402,Brantgum,Brantgum,Brantgum,53.35209,5.93009,P,PPL,NL,,2.0,1970.0,215,,3,Europe/Amsterdam,2019-01-20
723,2758401,Breda,Breda,"Breda,Breda khot,Brehda,Brenta,Brigita,Bréda,GLZ,be rda,beuleda,brda,brdh,breda,bryda,bu lei da,bureda,Μπρέντα,Бреда,Бреда хот,Брэда,Բրեդա,ברדה,بردا,بريدا,بریڈا,เบรดา,ბრედა,ブレダ,布雷达,브레다",51.58656,4.77596,P,PPL,NL,,6.0,758.0,167673,,9,Europe/Amsterdam,2019-09-05
724,2758397,Bredelaar,Bredelaar,,51.91083,5.88194,P,PPL,NL,,3.0,1734.0,0,,7,Europe/Amsterdam,2007-06-03
725,2758393,Bredevoort,Bredevoort,"Bradford,Bredevort,Breevoort,Brādford,bu lei de fu te,Бредеворт,布雷德福特",51.94167,6.62083,P,PPL,NL,,3.0,197.0,1405,,28,Europe/Amsterdam,2017-10-17
726,2758391,Bredeweg,Bredeweg,Breedeweg,51.76019,5.94189,P,PPL,NL,,3.0,1945.0,2500,,27,Europe/Amsterdam,2017-04-13
727,2758386,Breede,Breede,,53.38583,6.5375,P,PPL,NL,,4.0,1966.0,0,,3,Europe/Amsterdam,2019-01-20
728,2758382,Breedenbroek,Breedenbroek,,51.87333,6.47222,P,PPL,NL,,3.0,1509.0,440,,18,Europe/Amsterdam,2017-10-17
729,2758380,Breedeveen,Breedeveen,,52.02333,5.41806,P,PPL,NL,,9.0,1581.0,65,,12,Europe/Amsterdam,2017-03-24
730,2758376,Breedschot,Breedschot,,51.5075,4.7125,P,PPL,NL,,6.0,879.0,0,,7,Europe/Amsterdam,2007-06-03
731,2758374,Breehees,Breehees,,51.49833,5.06806,P,PPL,NL,,6.0,785.0,0,,17,Europe/Amsterdam,2007-06-03
732,2758369,Breemortel,Breemortel,,51.44333,5.81111,P,PPL,NL,,6.0,762.0,0,,28,Europe/Amsterdam,2007-06-03
733,2758366,Breeveld,Breeveld,,52.10417,4.93056,P,PPL,NL,,9.0,632.0,100,,0,Europe/Amsterdam,2017-03-24
734,2758360,Breezand,Breezand,,52.89,4.80417,P,PPL,NL,,7.0,1911.0,3370,,-1,Europe/Amsterdam,2017-10-17
735,2758361,Breezand,Breezand,,51.58583,3.62222,P,PPL,NL,,10.0,717.0,30,,3,Europe/Amsterdam,2017-03-24
736,2758357,Bregtdorp,Bregtdorp,,52.71167,4.69583,P,PPL,NL,,7.0,373.0,0,,2,Europe/Amsterdam,2007-06-03
737,2758354,Breklenkamp,Breklenkamp,,52.45417,6.98611,P,PPL,NL,,15.0,1774.0,0,,23,Europe/Amsterdam,2007-06-03
738,2758351,Brem,Brem,,51.53083,5.04167,P,PPL,NL,,6.0,785.0,0,,13,Europe/Amsterdam,2007-06-03
739,2758350,Brem,Brem,,51.5975,5.14722,P,PPL,NL,,6.0,855.0,0,,12,Europe/Amsterdam,2007-06-03
740,2758349,Bremberg,Bremberg,,51.56667,4.68333,P,PPL,NL,,6.0,777.0,0,,6,Europe/Amsterdam,2009-10-09
741,2758348,Brembosch,Brembosch,,51.49583,4.43333,P,PPL,NL,,6.0,1674.0,0,,7,Europe/Amsterdam,2007-06-03
742,2758341,Breskens,Breskens,"Bresjes,Breskens,Брескенс",51.39583,3.55556,P,PPL,NL,,10.0,1714.0,4335,,1,Europe/Amsterdam,2017-10-17
743,2758338,Breudijk,Breudijk,,52.1025,4.96111,P,PPL,NL,,9.0,632.0,0,,0,Europe/Amsterdam,2007-06-03
744,2758336,Breugel,Breugel,,51.5175,5.51111,P,PPL,NL,,6.0,848.0,1055,,17,Europe/Amsterdam,2017-11-22
745,2758333,Breukelen,Breukelen,"beuloekeolleon,ბროიკელენი,브뢰컬런",52.17417,5.00139,P,PPL,NL,,9.0,1904.0,14498,,2,Europe/Amsterdam,2017-10-17
746,2758334,Breukelen,Breukelen,,51.58333,5.31667,P,PPL,NL,,6.0,757.0,0,,7,Europe/Amsterdam,2011-06-04
747,2758329,Breukeleveen,Breukeleveen,Breukelerveen,52.17583,5.06944,P,PPL,NL,,7.0,1696.0,200,,0,Europe/Amsterdam,2017-10-17
748,6544756,Breyvin,Breyvin,,51.18833,5.71806,P,PPL,NL,"NL,BE",5.0,988.0,0,,31,Europe/Amsterdam,2007-06-07
749,2758326,Brielle,Brielle,"Brile,Brille,Bryle,Den Briel,brylh,bu li lei,Брилле,Брыле,Брілле,Բրիլե,بريله,布里勒",51.90167,4.1625,P,PPL,NL,,11.0,501.0,2765,,1,Europe/Amsterdam,2019-09-05
750,2758319,Brigdamme,Brigdamme,,51.51583,3.60556,P,PPL,NL,,10.0,687.0,595,,1,Europe/Amsterdam,2017-03-24
751,2758318,Brijdorpe,Brijdorpe,,51.72083,3.87639,P,PPL,NL,,10.0,1676.0,0,,-1,Europe/Amsterdam,2007-06-03
752,2758317,Brillerij,Brillerij,,53.2875,6.48194,P,PPL,NL,,4.0,1969.0,0,,0,Europe/Amsterdam,2021-07-06
753,2758316,Briltil,Briltil,De Bril,53.24167,6.38889,P,PPL,NL,,4.0,1969.0,490,,0,Europe/Amsterdam,2019-01-20
754,2758315,Brinke,Brinke,,51.93824,6.67396,P,PPL,NL,,3.0,294.0,0,,31,Europe/Amsterdam,2011-06-04
755,2758314,Brinkheurne,Brinkheurne,Winterswijk Brinkheurne,51.95167,6.74306,P,PPL,NL,,3.0,294.0,0,,38,Europe/Amsterdam,2017-10-17
756,2758313,Brinkhoek,Brinkhoek,,52.53583,6.12222,P,PPL,NL,,15.0,193.0,595,,5,Europe/Amsterdam,2017-03-24
757,2758310,Brinkmanshoek,Brinkmanshoek,,52.085,6.49583,P,PPL,NL,,3.0,1859.0,0,,16,Europe/Amsterdam,2007-06-03
758,2758309,Britsum,Britsum,,53.25428,5.78576,P,PPL,NL,,2.0,80.0,910,,2,Europe/Amsterdam,2019-01-20
759,2758306,Britswerd,Britswerd,Britswert,53.11247,5.67564,P,PPL,NL,,2.0,1900.0,0,,1,Europe/Amsterdam,2019-01-20
760,2758300,Broek,Broek,,50.78421,5.91557,P,PPL,NL,,5.0,1729.0,0,,118,Europe/Amsterdam,2011-04-19
761,2758299,Broek,Broek,'t Broek,51.29667,6.04583,P,PPL,NL,,5.0,1894.0,0,,25,Europe/Amsterdam,2010-09-17
762,2758298,Broek,Broek,,51.44333,6.06389,P,PPL,NL,,5.0,1507.0,0,,25,Europe/Amsterdam,2007-06-03
763,2758297,Broek,Broek,'t Broek,51.52583,5.55972,P,PPL,NL,,6.0,1659.0,0,,17,Europe/Amsterdam,2009-01-02
764,2758295,Broek,Broek,Broek,52.9832,5.77795,P,PPL,NL,,2.0,1940.0,200,,0,Europe/Amsterdam,2017-10-17
765,2758294,Broek,Broek,,53.39333,6.425,P,PPL,NL,,4.0,1966.0,0,,0,Europe/Amsterdam,2019-01-20
766,2757245,Broek,Den Broek,Broek,51.39,6.02639,P,PPL,NL,,5.0,1507.0,0,,29,Europe/Amsterdam,2010-09-17
767,2758296,Broek,Broek,,51.9325,4.97222,P,PPL,NL,,9.0,1961.0,0,,0,Europe/Amsterdam,2019-01-20
768,2758258,Broek in Waterland,Broek in Waterland,Broek,52.43417,4.99583,P,PPL,NL,,7.0,852.0,2655,,0,Europe/Amsterdam,2017-10-17
769,2758245,Broek op Langedijk,Broek op Langedijk,Broek op Langendijk,52.67417,4.80556,P,PPL,NL,,7.0,1980.0,5695,,2,Europe/Amsterdam,2022-09-30
770,2758247,Broek-Noord,Broek-Noord,,52.98715,5.77722,P,PPL,NL,,2.0,1940.0,0,,-1,Europe/Amsterdam,2017-04-13
771,2758290,Broekdijk,Broekdijk,,52.45,5.93333,P,PPL,NL,,3.0,269.0,825,,4,Europe/Amsterdam,2017-03-24
772,2758288,Broekeind,Broekeind,,51.42833,6.14028,P,PPL,NL,,5.0,1507.0,0,,17,Europe/Amsterdam,2007-06-03
773,2758282,Broekenseind,Broekenseind,,51.39583,5.3,P,PPL,NL,,6.0,1728.0,0,,28,Europe/Amsterdam,2007-06-03
774,2758279,Broekerhaven,Broekerhaven,,52.68833,5.25278,P,PPL,NL,,7.0,532.0,850,,-1,Europe/Amsterdam,2017-03-24
775,2758275,Broekhem,Broekhem,Brokem,50.87119,5.82069,P,PPL,NL,,5.0,994.0,1960,,73,Europe/Amsterdam,2009-09-30
776,2758273,Broekhin,Broekhin,,51.20519,6.00806,P,PPL,NL,,5.0,957.0,0,,25,Europe/Amsterdam,2009-01-12
777,2758272,Broekhoek,Broekhoek,,51.73405,5.51428,P,PPL,NL,,6.0,1721.0,0,,8,Europe/Amsterdam,2009-10-09
778,2758271,Broekhorn,Broekhorn,,52.6725,4.82083,P,PPL,NL,,7.0,1980.0,220,,-2,Europe/Amsterdam,2022-09-30
779,2758270,Broekhoven,Broekhoven,,50.93,5.74861,P,PPL,NL,,5.0,938.0,0,,46,Europe/Amsterdam,2007-06-03
780,2758269,Broekhoven,Broekhoven,,51.3625,5.38056,P,PPL,NL,,6.0,1724.0,0,,24,Europe/Amsterdam,2007-06-03
781,2758263,Broekhuizen,Broekhuizen,,52.695,6.26667,P,PPL,NL,,1.0,119.0,120,,3,Europe/Amsterdam,2017-10-17
782,2758264,Broekhuizen,Broekhuizen,,52.52083,6.2125,P,PPL,NL,,15.0,148.0,0,,2,Europe/Amsterdam,2007-06-03
783,2758266,Broekhuizen,Broekhuizen,,51.48583,6.16389,P,PPL,NL,,5.0,1507.0,610,,20,Europe/Amsterdam,2017-10-17
784,2758267,Broekhuizen,Broekhuizen,,50.9125,6.08171,P,PPL,NL,,5.0,882.0,0,,92,Europe/Amsterdam,2009-10-09
785,2758265,Broekhuizen,Broekhuizen,,52.01667,5.4,P,PPL,NL,,9.0,1581.0,0,,7,Europe/Amsterdam,2011-06-04
786,2758260,Broekhuizenvorst,Broekhuizenvorst,Broekhuizervorst,51.495,6.15694,P,PPL,NL,,5.0,1507.0,870,,19,Europe/Amsterdam,2017-10-17
787,2758256,Broekkant,Broekkant,,51.28333,5.58889,P,PPL,NL,,6.0,1706.0,0,,30,Europe/Amsterdam,2007-06-03
788,2758255,Broekkant,Broekkant,,51.42917,5.65,P,PPL,NL,,6.0,847.0,0,,20,Europe/Amsterdam,2007-06-03
789,2758254,Broekkant,Broekkant,,51.53583,5.65278,P,PPL,NL,,6.0,1659.0,0,,15,Europe/Amsterdam,2007-06-03
790,2758253,Broekkant,Broekkant,,51.6625,5.83472,P,PPL,NL,,6.0,1982.0,0,,12,Europe/Amsterdam,2022-09-30
791,2758252,Broekkant,Broekkant,,51.8,5.83333,P,PPL,NL,,3.0,252.0,0,,11,Europe/Amsterdam,2011-06-04
792,2758250,Broekland,Broekland,,52.36083,6.19861,P,PPL,NL,,15.0,177.0,0,,5,Europe/Amsterdam,2017-10-17
793,2758251,Broekland,Broekland,,52.26705,6.00712,P,PPL,NL,,3.0,200.0,0,,3,Europe/Amsterdam,2009-01-13
794,2758246,Broekoord,Broekoord,,52.75,5.2,P,PPL,NL,,7.0,420.0,0,,-2,Europe/Amsterdam,2012-04-14
795,2758241,Broeksittard,Broeksittard,,51.0029,5.89511,P,PPL,NL,,5.0,1883.0,1550,,45,Europe/Amsterdam,2017-03-24
796,2758239,Broeksterwâld,Broeksterwald,"Broek,Broeksterwald,Broeksterwoude,Broeksterwâld,De Broek",53.27466,5.99648,P,PPL,NL,,2.0,1891.0,1115,,0,Europe/Amsterdam,2017-10-17
797,2758237,Broekveld,Broekveld,,50.9,6.06667,P,PPL,NL,,5.0,928.0,0,,111,Europe/Amsterdam,2011-06-04
798,2758235,Broekzijde,Broekzijde,,51.52167,5.17778,P,PPL,NL,,6.0,824.0,0,,12,Europe/Amsterdam,2007-06-03
799,2758744,Broerdijk,Boerdijk,,52.72667,5.07222,P,PPL,NL,,7.0,420.0,0,,-2,Europe/Amsterdam,2007-06-03
800,2758227,Brommelen,Brommelen,,50.91167,5.73472,P,PPL,NL,,5.0,938.0,0,,44,Europe/Amsterdam,2007-06-03
801,2758228,Brommelen,Brommelen,,50.9075,5.90972,P,PPL,NL,,5.0,1954.0,0,,73,Europe/Amsterdam,2019-01-20
802,2758225,Brongerga,Brongerga,"Brongerga,Brongergea",52.95,5.98333,P,PPL,NL,,2.0,74.0,0,,4,Europe/Amsterdam,2012-01-17
803,2758224,Bronkhorst,Bronkhorst,,52.07583,6.17917,P,PPL,NL,,3.0,1876.0,95,,12,Europe/Amsterdam,2017-10-17
804,2758222,Bronneger,Bronneger,,52.94667,6.81528,P,PPL,NL,,1.0,1681.0,110,,11,Europe/Amsterdam,2017-10-17
805,2758221,Bronnegerveen,Bronnegerveen,,52.955,6.8375,P,PPL,NL,,1.0,1681.0,0,,5,Europe/Amsterdam,2017-10-17
806,2758220,Bronsbergen,Bronsbergen,"Baronsbergen,Bronsberg,Bronsbergen,Brunsbergen",52.11667,6.2,P,PPL,NL,,3.0,301.0,0,,10,Europe/Amsterdam,2012-01-17
807,2758219,Bronsveen,Bronsveen,,53.10167,7.03889,P,PPL,NL,,4.0,765.0,0,,-1,Europe/Amsterdam,2007-06-03
808,2758213,Brouwershaven,Brouwershaven,,51.72667,3.9125,P,PPL,NL,,10.0,1676.0,1275,,1,Europe/Amsterdam,2017-10-17
809,2758210,Brouwershoek,Brouwershoek,,52.10203,6.46263,P,PPL,NL,,3.0,1859.0,0,,16,Europe/Amsterdam,2011-04-19
810,2758209,Brouwhuis,Brouwhuis,,51.46,5.70139,P,PPL,NL,,6.0,794.0,0,,22,Europe/Amsterdam,2007-06-06
811,2758207,Bruchem,Bruchem,,51.78667,5.23611,P,PPL,NL,,3.0,297.0,1370,,3,Europe/Amsterdam,2017-10-17
812,2758206,Brucht,Brucht,,52.55083,6.60972,P,PPL,NL,,15.0,160.0,285,,10,Europe/Amsterdam,2017-10-17
813,2758205,Bruchterveld,Bruchterveld,,52.53083,6.66111,P,PPL,NL,,15.0,160.0,0,,11,Europe/Amsterdam,2017-10-17
814,2758204,Brug,Brug,,51.6,5.61667,P,PPL,NL,,6.0,1948.0,0,,11,Europe/Amsterdam,2017-08-16
815,2758201,Bruggen,Bruggen,,51.69917,5.77917,P,PPL,NL,,6.0,1982.0,0,,13,Europe/Amsterdam,2022-09-30
816,2758200,Bruggen,Bruggen,,51.72583,5.37361,P,PPL,NL,,6.0,796.0,0,,5,Europe/Amsterdam,2007-06-03
817,2758197,Bruggerhuizen,Bruggerhuizen,,51.32833,5.48056,P,PPL,NL,,6.0,1658.0,0,,26,Europe/Amsterdam,2007-06-03
818,2758189,Bruinehaar,Bruinehaar,,52.47,6.70417,P,PPL,NL,,15.0,1700.0,0,,23,Europe/Amsterdam,2017-10-17
819,2758186,Bruinisse,Bruinisse,,51.66167,4.09444,P,PPL,NL,,10.0,1676.0,3100,,1,Europe/Amsterdam,2017-10-17
820,2758181,Bruisterbosch,Bruisterbosch,,50.80583,5.80278,P,PPL,NL,,5.0,1903.0,50,,162,Europe/Amsterdam,2017-03-24
821,2758179,Brumholt,Brumhold,,51.27083,5.95417,P,PPL,NL,,5.0,1640.0,0,,28,Europe/Amsterdam,2007-06-03
822,2758177,Brummen,Brummen,"Brummen,Бруммен",52.09,6.15556,P,PPL,NL,,3.0,213.0,21344,,12,Europe/Amsterdam,2017-10-17
823,2758174,Brunssum,Brunssum,"Brjunssume,Broensem,Brunssum,Brunsum,Брюнссуме",50.94667,5.97083,P,PPL,NL,,5.0,899.0,29254,,79,Europe/Amsterdam,2017-10-17
824,2758171,Brunsting,Brunsting,,52.87083,6.48889,P,PPL,NL,,1.0,1731.0,85,,12,Europe/Amsterdam,2017-03-24
825,2758168,Bruntinge,Bruntinge,Bruntinge,52.81667,6.58333,P,PPL,NL,,1.0,1731.0,0,,15,Europe/Amsterdam,2017-10-17
826,2758167,Buchten,Buchten,,51.04333,5.80972,P,PPL,NL,,5.0,1883.0,2015,,37,Europe/Amsterdam,2017-10-17
827,2758166,Budel,Budel,"Budel,Buul",51.27167,5.575,P,PPL,NL,,6.0,1706.0,7895,,32,Europe/Amsterdam,2017-10-17
828,2758164,Budel-Dorplein,Budel-Dorplein,"Dorplein,Dorpplein",51.23667,5.5875,P,PPL,NL,,6.0,1706.0,1540,,35,Europe/Amsterdam,2017-10-17
829,2758163,Budel-Schoot,Budel-Schoot,"Groot Schoot,Groote Schoot",51.2475,5.56528,P,PPL,NL,,6.0,1706.0,1860,,35,Europe/Amsterdam,2017-10-17
830,2758162,Budschop,Budschop,,51.28511,5.75898,P,PPL,NL,,5.0,946.0,1550,,34,Europe/Amsterdam,2017-03-24
831,2758161,Buggenum,Buggenum,"Bruggenum,Buggenem",51.2325,5.98194,P,PPL,NL,,5.0,1640.0,0,,21,Europe/Amsterdam,2017-10-17
832,2758157,Buikstede,Buikstede,,53.24154,6.2913,P,PPL,NL,,4.0,1969.0,0,,-2,Europe/Amsterdam,2019-01-20
833,2758156,Buinen,Buinen,,52.93083,6.83611,P,PPL,NL,,1.0,1681.0,750,,17,Europe/Amsterdam,2017-10-17
834,2758154,Buinerveen,Buinerveen,,52.93667,6.87917,P,PPL,NL,,1.0,1681.0,430,,6,Europe/Amsterdam,2017-10-17
835,2758142,Buitenhuizen,Buitenhuizen,,52.43132,4.7076,P,PPL,NL,,7.0,453.0,0,,0,Europe/Amsterdam,2011-06-04
836,2758141,Buitenhuizen,Buitenhuizen,,52.71583,6.25278,P,PPL,NL,,1.0,1690.0,0,,1,Europe/Amsterdam,2007-06-03
837,2758140,Buitenhuizen,Buitenhuizen,,53.18369,6.76513,P,PPL,NL,,4.0,1952.0,0,,-2,Europe/Amsterdam,2019-01-20
838,2758138,Buitenkaag,Buitenkaag,,52.22083,4.55972,P,PPL,NL,,7.0,394.0,435,,-3,Europe/Amsterdam,2017-10-17
839,2758131,Buitenpost,Buitenpost,"Buitenpost,Butenpost,Bûtenpost",53.25166,6.14483,P,PPL,NL,,2.0,59.0,5120,,3,Europe/Amsterdam,2017-10-17
840,2758128,Buitenstverlaat,Buitenstverlaat,"Buitenstvallaat,Buitenstverlaat,Butenstferlaat,Bûtenstferlaat",53.10403,6.04539,P,PPL,NL,,2.0,90.0,0,,0,Europe/Amsterdam,2012-01-17
841,2758122,Bulkemsbroek,Bulkemsbroek,,50.83083,5.96389,P,PPL,NL,,5.0,965.0,0,,138,Europe/Amsterdam,2007-06-03
842,2758121,Bulkenaar,Bulkenaar,,51.51583,4.42222,P,PPL,NL,,6.0,1674.0,0,,6,Europe/Amsterdam,2007-06-03
843,2758119,Bullenkamp,Bullenkamp,,51.78583,5.77917,P,PPL,NL,,3.0,296.0,0,,11,Europe/Amsterdam,2007-06-03
844,2758114,Bultinge,Bultinge,,52.775,6.44167,P,PPL,NL,,1.0,1690.0,0,,12,Europe/Amsterdam,2007-06-03
845,2758111,Bunde,Bunde,,50.89667,5.73194,P,PPL,NL,,5.0,938.0,5500,,49,Europe/Amsterdam,2017-10-17
846,2758108,Bunne,Bunne,,53.1175,6.53333,P,PPL,NL,,1.0,1730.0,130,,5,Europe/Amsterdam,2017-10-17
847,2758106,Bunnik,Bunnik,,52.06667,5.19861,P,PPL,NL,,9.0,312.0,6315,,4,Europe/Amsterdam,2017-10-17
848,2758104,Bunschoten,Bunschoten,"Bunschoten-Spakenburg,Bunskoat,Bunsxoten,bwnskhwtn,Բունշխոտեն,بونسخوتن",52.24304,5.37884,P,PPL,NL,,9.0,313.0,3015,,0,Europe/Amsterdam,2017-10-17
849,2758102,Bunt,Bunt,"Bunt,De Bund,De Bunt",52.15,5.33333,P,PPL,NL,,9.0,342.0,0,,13,Europe/Amsterdam,2012-01-17
850,2758895,Burdaard,Burdaard,"Birdaard,Burdaard",53.29421,5.87897,P,PPL,NL,,2.0,1970.0,1166,,1,Europe/Amsterdam,2019-01-20
851,2758096,Buren,Buren,"Bueren,Buren",53.44717,5.79906,P,PPL,NL,,2.0,60.0,710,,4,Europe/Amsterdam,2017-10-17
852,2758097,Buren,Buren,"Bjuren,Buren,bi lun,bwryn,Бюрен,Բուրեն,بورين,比倫",51.91167,5.33194,P,PPL,NL,,3.0,214.0,0,,8,Europe/Amsterdam,2017-10-17
853,2758091,Burgemeester Beinsdorp,Burgemeester Beinsdorp,,52.8625,7.07917,P,PPL,NL,,4.0,1950.0,370,,12,Europe/Amsterdam,2019-01-20
854,2758089,Burgerbrug,Burgerbrug,,52.74833,4.70278,P,PPL,NL,,7.0,441.0,560,,0,Europe/Amsterdam,2017-10-17
855,2758086,Burgersdijk,Burgersdijk,Burgerdijk,51.96833,4.26111,P,PPL,NL,,11.0,1783.0,0,,-1,Europe/Amsterdam,2007-06-03
856,2758085,Burgerveen,Burgerveen,,52.24,4.68194,P,PPL,NL,,7.0,394.0,315,,-1,Europe/Amsterdam,2017-10-17
857,2758084,Burgervlotbrug,Burgervlotbrug,,52.75333,4.68194,P,PPL,NL,,7.0,441.0,205,,1,Europe/Amsterdam,2017-03-24
858,2758081,Burgh,Burgh,"Burg,Бург",51.68917,3.73333,P,PPL,NL,,10.0,1676.0,730,,2,Europe/Amsterdam,2017-03-24
859,8335037,Burgh-Haamstede,Burgh-Haamstede,,51.6952,3.73677,P,PPL,NL,,10.0,1676.0,0,,4,Europe/Amsterdam,2017-10-17
860,2758078,Burghsluis,Burghsluis,Burgsluis,51.67833,3.75,P,PPL,NL,,10.0,1676.0,0,,-1,Europe/Amsterdam,2007-06-03
861,2758076,Burgt,Burgt,,51.6075,5.68056,P,PPL,NL,,6.0,755.0,0,,20,Europe/Amsterdam,2007-06-03
862,2759103,Burgum,Burgum,"Bergum,Burgum",53.19243,5.99009,P,PPL,NL,,2.0,737.0,9720,,3,Europe/Amsterdam,2017-10-17
863,2758075,Burgwerd,Burgwerd,,53.08799,5.54621,P,PPL,NL,,2.0,1900.0,255,,1,Europe/Amsterdam,2017-10-17
864,2758073,Burum,Burum,,53.2734,6.22942,P,PPL,NL,,2.0,1970.0,525,,1,Europe/Amsterdam,2019-01-20
865,2758072,Bus,Bus,,51.595,5.49722,P,PPL,NL,,6.0,1948.0,0,,10,Europe/Amsterdam,2017-08-16
866,2758071,Bus,Bus,,51.7,5.59167,P,PPL,NL,,6.0,1721.0,0,,17,Europe/Amsterdam,2007-06-03
867,2758070,Busch en Dam,Busch en Dam,,52.49833,4.72917,P,PPL,NL,,7.0,450.0,0,,-2,Europe/Amsterdam,2007-06-03
868,2758068,Bussel,Bussel,,51.41917,5.71389,P,PPL,NL,,6.0,743.0,0,,22,Europe/Amsterdam,2007-06-03
869,2758067,Busselte,Busselte,,52.765,6.19722,P,PPL,NL,,1.0,1701.0,0,,1,Europe/Amsterdam,2007-06-03
870,2758066,Bussereind,Bussereind,,51.26333,6.05139,P,PPL,NL,,5.0,889.0,115,,24,Europe/Amsterdam,2017-03-24
871,2758065,Bussloo,Bussloo,,52.1975,6.13056,P,PPL,NL,,3.0,285.0,90,,8,Europe/Amsterdam,2017-03-24
872,2758064,Bussum,Bussum,"Bjussjum,Bussum,Busum,bu sen,bwswm,Бюссюм,Բուսում,بوسوم,布森",52.27333,5.16111,P,PPL,NL,,7.0,1942.0,31334,,4,Europe/Amsterdam,2017-10-17
873,2758058,Butterhuizen,Butterhuizen,Butterhuizen,52.65,4.81667,P,PPL,NL,,7.0,1980.0,0,,-4,Europe/Amsterdam,2022-09-30
874,2758057,Buttinga,Buttinga,"Buttinga,Buttinge",52.97966,6.27804,P,PPL,NL,,2.0,85.0,0,,5,Europe/Amsterdam,2018-12-08
875,2758056,Buttinge,Buttinge,,51.51833,3.57361,P,PPL,NL,,10.0,717.0,0,,1,Europe/Amsterdam,2007-06-03
876,2758052,Buurmalsen,Buurmalsen,,51.89167,5.29444,P,PPL,NL,,3.0,1960.0,685,,5,Europe/Amsterdam,2019-01-20
877,2758050,Buurse,Buurse,,52.14667,6.83056,P,PPL,NL,,15.0,158.0,0,,35,Europe/Amsterdam,2007-06-03
878,2758045,Buurtje,Buurtje,,51.82417,4.925,P,PPL,NL,,6.0,1959.0,0,,2,Europe/Amsterdam,2019-01-20
879,2758043,Buurtsdijk,Buurtsdijk,,52.20083,5.42917,P,PPL,NL,,9.0,307.0,0,,3,Europe/Amsterdam,2007-06-03
880,2758042,Buweklooster,Buweklooster,"Bouwekleaster,Buweklooster",53.20138,6.12678,P,PPL,NL,,2.0,59.0,0,,4,Europe/Amsterdam,2012-01-17
881,2758038,Cabauw,Cabauw,Kabauw,51.96417,4.89861,P,PPL,NL,,9.0,331.0,730,,0,Europe/Amsterdam,2017-03-24
882,2758035,Cadier en Keer,Cadier en Keer,"Cadier,Kadier,Kadier en Keer",50.82833,5.76528,P,PPL,NL,,5.0,1903.0,0,,132,Europe/Amsterdam,2017-10-17
883,2758033,Cadzand,Cadzand,"Casant,Kadzand,Kezand",51.36833,3.40833,P,PPL,NL,,10.0,1714.0,445,,2,Europe/Amsterdam,2017-10-17
884,2758032,Cadzand-Bad,Cadzand-Bad,Kadzand-Bad,51.37667,3.38611,P,PPL,NL,,10.0,1714.0,185,,4,Europe/Amsterdam,2017-03-24
885,2758030,Calfven,Calfven,,51.41,4.31806,P,PPL,NL,,6.0,873.0,430,,14,Europe/Amsterdam,2017-03-24
886,2758029,Californië,Californie,,51.42167,6.10694,P,PPL,NL,,5.0,1507.0,0,,24,Europe/Amsterdam,2007-06-03
887,6544777,Californië,Californie,,51.7475,5.23472,P,PPL,NL,,3.0,263.0,0,,4,Europe/Amsterdam,2007-06-07
